stop_id,stop_code,stop_name,stop_lat,stop_lon,location_type,parent_station,wheelchair_boarding
stop_area:SA_1,,Montjoie,43.5386624143594,1.4605112727420955,1,,1
stop_area:SA_10,,Le Lac Reynerie,43.56748734995478,1.4040756476682126,1,,1
stop_area:SA_100,,Borde Haute,43.64370947141033,1.5314279793318943,1,,1
stop_area:SA_1000,,Phidias,43.580869083701046,1.374173329972152,1,,1
stop_area:SA_1002,,Amidonniers,43.60631516569829,1.4281847885171595,1,,1
stop_area:SA_1004,,Lauragais,43.586655062927974,1.53423130511658,1,,1
stop_area:SA_1007,,Mayer,43.54397616546114,1.3954042541911866,1,,1
stop_area:SA_1008,,Françoise Dolto,43.55555972591757,1.3781796945667264,1,,2
stop_area:SA_1009,,Secteur A,43.640006650717964,1.3309088208015807,1,,2
stop_area:SA_1010,,Cimetière Villeneuve,43.52470437081928,1.3692281473639352,1,,1
stop_area:SA_1011,,Bellefontaine,43.56664728546592,1.399674254386743,1,,1
stop_area:SA_1012,,Monturon,43.616597891643465,1.3104403428683926,1,,1
stop_area:SA_1013,,Pin Balma Mairie,43.62779107164408,1.5330083503461294,1,,2
stop_area:SA_1016,,Mariel,43.68186627730712,1.4211803524747155,1,,1
stop_area:SA_1018,,Borde Haute,43.513942411913526,1.5560432126970978,1,,1
stop_area:SA_1019,,Foyer Toulousain,43.60662388978702,1.4082353702207118,1,,1
stop_area:SA_102,,Caulet,43.60695554498714,1.35525923450408,1,,1
stop_area:SA_1020,,Portet H. Boucher,43.51453971185695,1.3876980416503273,1,,1
stop_area:SA_1021,,Mairie Auzielle,43.54162229027654,1.5663646899589834,1,,2
stop_area:SA_1022,,Château de Soule,43.53497969638396,1.4708341586040523,1,,1
stop_area:SA_1024,,Saint-Geniès,43.68369529019479,1.4858208428444588,1,,1
stop_area:SA_1025,,Deltour,43.60080763539567,1.471436131902499,1,,1
stop_area:SA_1028,,Vincent Auriol,43.470126906427275,1.3298030202592896,1,,1
stop_area:SA_1029,,Poste de Saint-Orens,43.55457687012866,1.5320776722830698,1,,1
stop_area:SA_103,,Poste de Ramonville,43.54791985408014,1.4723561785865993,1,,1
stop_area:SA_1030,,Centre Commercial Purpan Sud,43.60805116786052,1.3932689659948596,1,,1
stop_area:SA_1031,,Max Fischl,43.60578006496714,1.3593045786233784,1,,1
stop_area:SA_1032,,Clinique des Cèdres,43.658976183220084,1.3121766696883637,1,,2
stop_area:SA_1033,,Esquirol,43.60041017083305,1.4441064121476506,1,,1
stop_area:SA_1034,,Molette,43.585553361551476,1.3872751826767218,1,,1
stop_area:SA_1035,,Rossignol,43.62793879008138,1.5452939303601747,1,,1
stop_area:SA_1036,,Centre de Détention,43.48249059856795,1.3207074086847157,1,,1
stop_area:SA_1037,,Bordeblanche,43.58137776151459,1.3865582623118784,1,,1
stop_area:SA_1038,,Marcel Dassault,43.573646538068,1.4939503342568918,1,,1
stop_area:SA_1039,,ZI Bois Vert N°2,43.53025481868444,1.3807661300782847,1,,1
stop_area:SA_1040,,Aéropostale,43.54244689687895,1.4588030785244046,1,,1
stop_area:SA_1041,,Corneille,43.588693801123306,1.412144741217161,1,,1
stop_area:SA_1042,,Canto Laouzetto,43.55117150639176,1.3789231500591836,1,,1
stop_area:SA_1043,,Rossignolis,43.52346488816484,1.3544922227668896,1,,1
stop_area:SA_1044,,Châtaigniers,43.586344684929905,1.3906965392459338,1,,1
stop_area:SA_1045,,Saint Agne-SNCF,43.58023973393596,1.449598399003981,1,,1
stop_area:SA_1046,,Goubard,43.53354276411405,1.359289643503193,1,,2
stop_area:SA_1047,,Gymnase,43.568169834562624,1.5206712073150266,1,,1
stop_area:SA_1051,,Rimont,43.56000699272132,1.4040940143085416,1,,1
stop_area:SA_1052,,Monplaisir,43.58312262901294,1.5339836141067056,1,,1
stop_area:SA_1053,,Eglise Pechabou,43.50026470693278,1.5077755928729113,1,,1
stop_area:SA_1055,,Claire Fontaine,43.540128276491686,1.409790152517316,1,,1
stop_area:SA_1056,,Val d'Aran,43.64947911031051,1.473643635625154,1,,1
stop_area:SA_1057,,De Pisan,43.62982575619717,1.448291216874758,1,,2
stop_area:SA_106,,Arago,43.61737180258183,1.4546433941541492,1,,1
stop_area:SA_1060,,Estérel,43.595328044690866,1.326255709944419,1,,1
stop_area:SA_1064,,Rupé,43.657468284727116,1.4202276266656186,1,,1
stop_area:SA_1066,,Balma Ribaute,43.58876114154777,1.5160022963851243,1,,1
stop_area:SA_1067,,Victor Hugo,43.500013264353356,1.3180716000454933,1,,1
stop_area:SA_1068,,Balma-Gramont,43.62852141490813,1.482416884052139,1,,1
stop_area:SA_1069,,Petit Barry,43.544455431971905,1.3499590624115052,1,,1
stop_area:SA_1070,,Sainte Anne,43.593494449316445,1.5052523294461828,1,,1
stop_area:SA_1071,,Bastiat,43.63435607955971,1.431110467247663,1,,1
stop_area:SA_1072,,Compans-Caffarelli,43.61067042031915,1.435450010822449,1,,1
stop_area:SA_1073,,Las Puntos,43.44976077021229,1.6086485017614054,1,,2
stop_area:SA_1074,,Fourquets,43.671841154515604,1.4498362456151712,1,,1
stop_area:SA_1075,,Campardon,43.62193775896868,1.4655879170286275,1,,1
stop_area:SA_1076,,Le Broc,43.53195341315917,1.5741258378980467,1,,2
stop_area:SA_1078,,Croix de Pierre,43.585224189870345,1.4277674987735618,1,,1
stop_area:SA_1079,,A. Perdiguier,43.51315391927884,1.5567517293270356,1,,1
stop_area:SA_108,,Bouloc,43.58576457355305,1.4631056338994493,1,,1
stop_area:SA_1080,,Le Grand Marché - Pont de La Vache,43.638845921615996,1.4333610495939986,1,,1
stop_area:SA_1082,,Berdoulat,43.510430536751024,1.3886325745367758,1,,1
stop_area:SA_1084,,Larzac,43.593220310772054,1.324296973341207,1,,1
stop_area:SA_1085,,Bascule - Seycheron,43.608739510939074,1.3410204844260614,1,,1
stop_area:SA_1086,,Périgord,43.582283664779204,1.3331876910778115,1,,1
stop_area:SA_1087,,Castelmaurou Mairie,43.67798430984361,1.532510936029886,1,,1
stop_area:SA_1088,,Pastel,43.54977113685807,1.4574015849770925,1,,1
stop_area:SA_1089,,Mondonville Moulis,43.66169646828556,1.2821626100740904,1,,1
stop_area:SA_1090,,Narrade,43.55153225552308,1.4572780727303616,1,,1
stop_area:SA_1093,,Bréguet,43.577114587632664,1.4794290833798838,1,,1
stop_area:SA_1095,,Cèdres,43.57562251275715,1.3283848052209575,1,,1
stop_area:SA_1098,,Vignes,43.69488868509571,1.4385460652643598,1,,1
stop_area:SA_1099,,Empalot,43.57997489100867,1.4418993799587894,1,,1
stop_area:SA_11,,Soupetard,43.6123149657078,1.4773227473071682,1,,1
stop_area:SA_110,,Latécoère,43.573694472519385,1.4742238749688723,1,,1
stop_area:SA_1100,,Beau Soleil,43.59243936870755,1.467455442982812,1,,1
stop_area:SA_1102,,Fleming,43.57887164008423,1.3803259154476462,1,,1
stop_area:SA_1105,,Grynfogel,43.57985465573618,1.367977454636027,1,,1
stop_area:SA_1106,,Mairie Portet,43.52053088247975,1.4001770779637217,1,,2
stop_area:SA_1109,,Braves,43.60083747777639,1.4192905688437862,1,,1
stop_area:SA_111,,Saint-Alban Centre Commercial,43.68889802763,1.4226876692238601,1,,1
stop_area:SA_1110,,Chemin des Izards,43.66090788527535,1.439099437046779,1,,1
stop_area:SA_1111,,Cadène,43.65392118199539,1.4233555297770915,1,,2
stop_area:SA_1113,,Bicentenaire,43.620494200082156,1.4964322864489927,1,,1
stop_area:SA_1114,,Périssé,43.59765234546648,1.4586301216939785,1,,1
stop_area:SA_1116,,Maourine,43.63098877466819,1.4495904244932012,1,,1
stop_area:SA_1117,,Tolstoï,43.574798051387994,1.4433346283602617,1,,1
stop_area:SA_112,,L'Enclos du Château,43.47754817761809,1.5250910424424329,1,,1
stop_area:SA_1120,,Commune,43.501667394030505,1.3925889131030462,1,,1
stop_area:SA_1121,,En Sigal,43.60527116836674,1.3264797957621477,1,,1
stop_area:SA_1123,,Muret Lycée,43.453899458128724,1.3297958817355455,1,,1
stop_area:SA_1125,,Bel Horizon,43.52725186582029,1.5885025945298885,1,,2
stop_area:SA_1126,,Palmiers,43.573442281173364,1.4491298020624435,1,,1
stop_area:SA_1127,,Victor Cousin,43.63002263778673,1.4727618514711636,1,,1
stop_area:SA_1128,,Bourdies,43.57416028295912,1.2824929892744283,1,,2
stop_area:SA_113,,Barrau,43.590555805946885,1.4698566050299993,1,,1
stop_area:SA_1131,,Terroir 1,43.700136667962816,1.4022798177957894,1,,1
stop_area:SA_1133,,Basilique,43.61806112450887,1.2846116120995226,1,,1
stop_area:SA_1134,,Menton,43.65156581827349,1.4976350061333152,1,,1
stop_area:SA_1135,,Cimetière Fourquevaux,43.499066581397194,1.622176382029071,1,,2
stop_area:SA_1136,,Paléficat,43.64739609581516,1.4652515421125074,1,,1
stop_area:SA_1137,,Glycines,43.69376651300235,1.4831196000803912,1,,1
stop_area:SA_1139,,Collège Montrabé,43.64205647869865,1.538706927927507,1,,1
stop_area:SA_114,,F. Mitterrand,43.66528631000005,1.5068863889619022,1,,1
stop_area:SA_1140,,Fonbeauzard Mermoz,43.68140496383236,1.4349746657576308,1,,1
stop_area:SA_1141,,Vignes,43.644917864070884,1.453059893646621,1,,1
stop_area:SA_1142,,Mûriers,43.549576965423064,1.5383922880675198,1,,1
stop_area:SA_1143,,Seel,43.59719890545259,1.4566990781935518,1,,1
stop_area:SA_1146,,Savignac,43.60622364010454,1.4626049313775515,1,,1
stop_area:SA_1147,,Lully,43.618873221767466,1.4081875530251506,1,,1
stop_area:SA_1148,,Bertier,43.60841633556571,1.3778650058732589,1,,1
stop_area:SA_1149,,Saphirs,43.55576992518138,1.5206865539724916,1,,1
stop_area:SA_115,,Renery,43.71749525951844,1.4477519803691308,1,,1
stop_area:SA_1150,,Balma Lasbordes,43.59612805248018,1.5062272530251886,1,,1
stop_area:SA_1151,,La Rivière,43.6455705742354,1.5264925286195237,1,,1
stop_area:SA_1152,,Barrière de Paris,43.62662295379673,1.4337858328642137,1,,1
stop_area:SA_1155,,Barry,43.713337380130596,1.4310572605205976,1,,1
stop_area:SA_1156,,Mouettes,43.57717068575884,1.4398276973381947,1,,1
stop_area:SA_1157,,Mairie Gratentour,43.72229564724775,1.431778697419441,1,,1
stop_area:SA_1158,,Mandelieu,43.64854665599699,1.4921126994062779,1,,1
stop_area:SA_116,,Sicard Alaman,43.581541872821546,1.489356629786782,1,,1
stop_area:SA_1160,,Liffard,43.564799209964946,1.3734232373336295,1,,1
stop_area:SA_1162,,Les Jardins du Panariol,43.67878889273877,1.3230759919746602,1,,1
stop_area:SA_1163,,Champs Magnétiques,43.56630921060085,1.4684361665230448,1,,2
stop_area:SA_1165,,Painlevé,43.522240493160126,1.321863232750053,1,,1
stop_area:SA_1166,,Elvire,43.5787738342628,1.4467954484211922,1,,1
stop_area:SA_1167,,Logis Vieux,43.64323998747015,1.5219719192742542,1,,1
stop_area:SA_1168,,Glaïeuls,43.58905596272167,1.4716916180630069,1,,1
stop_area:SA_1169,,Fonsegrives Entiore,43.57931424961399,1.5109642205122824,1,,1
stop_area:SA_117,,Languedoc,43.67985329005281,1.396756435452775,1,,1
stop_area:SA_1170,,Mairie Castelginest,43.693392520108844,1.4289808493209961,1,,1
stop_area:SA_1171,,Cher,43.581942818480144,1.407822045335316,1,,1
stop_area:SA_1172,,Picasso,43.5917102667195,1.3183209124919926,1,,2
stop_area:SA_1173,,Fénelon,43.64754206652772,1.4535446951338002,1,,2
stop_area:SA_1174,,Platanes,43.586414083212375,1.4394184229078744,1,,1
stop_area:SA_1175,,Pelletier Purpan,43.607018710460686,1.3960416559380993,1,,1
stop_area:SA_1176,,Marcaissonne,43.567027234499626,1.5090705568952538,1,,1
stop_area:SA_1177,,Bourrassol,43.601882468110325,1.420411696948779,1,,1
stop_area:SA_1178,,Barrière de Lombez,43.59535939299339,1.419446046671324,1,,1
stop_area:SA_1179,,Bernadette,43.57445207535354,1.4199482989541334,1,,1
stop_area:SA_118,,Champs Pinsons,43.56322002321764,1.5181533116384591,1,,1
stop_area:SA_1180,,Pechbonnieu Mairie,43.70318290783856,1.4669430746814227,1,,1
stop_area:SA_1181,,Julien,43.59000048764632,1.4907514265445851,1,,1
stop_area:SA_1182,,L'Espitalet,43.49682585855242,1.5181676861384847,1,,2
stop_area:SA_1183,,Charmes,43.67109777877329,1.4978700238905465,1,,2
stop_area:SA_1185,,Acacias,43.50150269486238,1.3615815997920306,1,,1
stop_area:SA_1186,,Bruguières Verger,43.72178481183716,1.411243614577875,1,,1
stop_area:SA_1187,,Médiathèque Pavillon Blanc,43.608519949135456,1.3363931448660045,1,,1
stop_area:SA_1188,,Fronde,43.58463359964409,1.3946953456982218,1,,1
stop_area:SA_1189,,Passerive,43.56540190851881,1.337158727115096,1,,1
stop_area:SA_119,,Prat,43.57906549007006,1.3585991630789642,1,,1
stop_area:SA_1190,,Panchaud,43.70207475949734,1.4646789113950345,1,,1
stop_area:SA_1191,,Boulodrome,43.52168819255211,1.3428807408623133,1,,1
stop_area:SA_1192,,Tocqueville,43.65018294012792,1.456516885980376,1,,1
stop_area:SA_1193,,Douanes,43.57449201969843,1.397128834247764,1,,1
stop_area:SA_1194,,Cascade,43.57517451176951,1.3458359538014926,1,,2
stop_area:SA_1195,,Saint-Orens Centre Commercial,43.56514945797951,1.5192776612067689,1,,1
stop_area:SA_1197,,Lacourtensourt Gare SNCF,43.66391227629337,1.4144374616885984,1,,1
stop_area:SA_1199,,La Lie,43.593915547034676,1.557524260041392,1,,1
stop_area:SA_12,,Bart,43.57125297102213,1.4447925964115191,1,,1
stop_area:SA_120,,Pouvourville,43.54677796430607,1.4530906594809954,1,,1
stop_area:SA_1201,,Grillons,43.661302895584505,1.3791589350901141,1,,1
stop_area:SA_1202,,Hôpital des Enfants,43.61115206220845,1.4039184780182616,1,,1
stop_area:SA_1204,,Mascard,43.59957515488261,1.4786902227707053,1,,1
stop_area:SA_1206,,Général Leclerc,43.577800897225295,1.327135295437196,1,,1
stop_area:SA_1209,,Gymnase de l'Hers,43.591597187595504,1.4897650244371254,1,,1
stop_area:SA_121,,Saudrune,43.542079260254475,1.3918071963055867,1,,2
stop_area:SA_1210,,Mapad,43.61639592955037,1.495170728392267,1,,1
stop_area:SA_1212,,Cité de l'Espace,43.58688447265106,1.4910127813821772,1,,1
stop_area:SA_1214,,Eisenhower Est,43.55824056140479,1.4014155410118518,1,,1
stop_area:SA_1215,,Lachambre,43.49911906549495,1.3937403580366963,1,,1
stop_area:SA_1217,,Ecole Saint-Jean,43.66860075416825,1.5000893057891729,1,,1
stop_area:SA_1218,,Avionique,43.56477016527022,1.3844947381597184,1,,1
stop_area:SA_1219,,Touraine,43.58764403625987,1.3220717069714782,1,,1
stop_area:SA_1221,,Auzeville Eglise,43.52630630547311,1.4865555518676206,1,,1
stop_area:SA_1222,,Hauts de Bonnefoy,43.621312051269996,1.4579098565461164,1,,1
stop_area:SA_1223,,Petit Castelet,43.63373390740153,1.4580114261098076,1,,1
stop_area:SA_1224,,Eglise Aucamville,43.66604918935236,1.4299419551821657,1,,1
stop_area:SA_1225,,Mairie La Salvetat,43.57819667445126,1.2726892059601858,1,,1
stop_area:SA_1226,,Place des Glières,43.564848762731096,1.4100222777442735,1,,1
stop_area:SA_1228,,Terris,43.56621517689886,1.284691049555399,1,,1
stop_area:SA_1229,,Pasteur-Mairie de Blagnac,43.633720116679804,1.390131306690934,1,,1
stop_area:SA_123,,Miracles,43.575502787787464,1.4496145349366467,1,,2
stop_area:SA_1230,,Colomiers Ramassiers Gare SNCF,43.601945602968996,1.3533845109229632,1,,1
stop_area:SA_1232,,Boëly,43.61705127129477,1.52055947059793,1,,2
stop_area:SA_1233,,Sources,43.57368397150064,1.3427253666823675,1,,1
stop_area:SA_1234,,Pyrénées,43.508060074571716,1.3252713619050982,1,,1
stop_area:SA_1235,,Aigrefeuille Ch. du Baric,43.56919131287411,1.5940840695535525,1,,2
stop_area:SA_1237,,Savary,43.651256829695114,1.373440543639454,1,,1
stop_area:SA_124,,Village Montlaur,43.488840700405085,1.569045036367896,1,,1
stop_area:SA_1241,,Fonbeauzard Mairie,43.67970587114646,1.4270059860830957,1,,1
stop_area:SA_1243,,Carènes,43.62399953499867,1.4841717381157356,1,,1
stop_area:SA_1244,,Orée du Bois,43.54205745548769,1.543919706169782,1,,1
stop_area:SA_1245,,Sainte-Lucie,43.593799887118394,1.4296720732390629,1,,1
stop_area:SA_1247,,Gers,43.60851542124935,1.3265033826912158,1,,1
stop_area:SA_1248,,Cantal,43.61125518615323,1.337239922790497,1,,1
stop_area:SA_1249,,Frouzins Complexe Sportif,43.516277654534434,1.3174930929580653,1,,1
stop_area:SA_1250,,Salas,43.54170480522737,1.4615006202908782,1,,1
stop_area:SA_1251,,Centre,43.52240311001812,1.5885247327218281,1,,1
stop_area:SA_1252,,Leclerc,43.60927736891503,1.4318842975460429,1,,1
stop_area:SA_1256,,Tilleuls,43.506951985183754,1.3709172513634584,1,,1
stop_area:SA_1257,,Roquemaurel,43.59505388727421,1.4152306062529187,1,,2
stop_area:SA_1258,,Vignalis,43.6019665347097,1.5443783702933302,1,,1
stop_area:SA_1259,,Saint-Gobain,43.676509142981736,1.4086095651122272,1,,1
stop_area:SA_126,,Les Sables,43.6562280767621,1.4464776466729916,1,,1
stop_area:SA_1260,,Chaumière,43.6139406387204,1.4660972596893773,1,,1
stop_area:SA_1261,,Catalpas,43.57779767310519,1.3327231625998102,1,,1
stop_area:SA_1263,,Place Bet,43.62337887611947,1.4674045910602906,1,,1
stop_area:SA_1265,,Duguay Trouin,43.57241405003409,1.4609759565544667,1,,1
stop_area:SA_1267,,Mont Pin,43.63882547591422,1.5216531762393026,1,,1
stop_area:SA_1269,,Jacques Prévert,43.54195327873916,1.4868724323833955,1,,1
stop_area:SA_1270,,Collège d'Aussonne,43.688122798651065,1.32330698376524,1,,1
stop_area:SA_1271,,Jeux Floraux,43.60778391958618,1.5022329784827837,1,,1
stop_area:SA_1272,,La Plaine Tucol,43.746378571888165,1.3703600149246615,1,,1
stop_area:SA_1274,,Saint-Exupéry,43.58854111139381,1.3594365657778271,1,,1
stop_area:SA_1275,,Mairie Fenouillet,43.678849436258766,1.3909517889346759,1,,1
stop_area:SA_1276,,Eglise Balma,43.60978386657291,1.4980330440529304,1,,1
stop_area:SA_1277,,Cale,43.581003667886534,1.464691891042022,1,,2
stop_area:SA_1278,,Lot. Impérial,43.513575378182416,1.389958633086735,1,,1
stop_area:SA_1279,,Château Sud,43.4977177461923,1.3623616494557147,1,,1
stop_area:SA_128,,Roc,43.581580865209894,1.4254342477220574,1,,1
stop_area:SA_1280,,Pradelle,43.69398113679842,1.432218154220707,1,,1
stop_area:SA_1281,,Aéroport,43.63124693034477,1.3747522242996977,1,,1
stop_area:SA_1282,,Pont Matabiau,43.613778950748355,1.4502891896157657,1,,1
stop_area:SA_1284,,Violettes,43.55350385725679,1.4747352591228446,1,,1
stop_area:SA_1285,,Vignobles,43.64026479084445,1.5208485198923614,1,,1
stop_area:SA_1289,,Pastel,43.64315998173327,1.5144895553465532,1,,1
stop_area:SA_1291,,Fonquerne,43.627490402477775,1.425323728013711,1,,1
stop_area:SA_1292,,Collège George Sand,43.58759089402468,1.4093092175965005,1,,1
stop_area:SA_1294,,Firmis,43.58984665007819,1.4788167264551575,1,,1
stop_area:SA_1295,,Hall Comminges,43.60926299934001,1.3309083023227548,1,,1
stop_area:SA_1296,,Vidailhan,43.626831797012755,1.4898845913391308,1,,1
stop_area:SA_1297,,Noisetiers,43.57745034391683,1.3311362083905878,1,,1
stop_area:SA_1298,,Borderouge,43.64146196750516,1.4527207795868746,1,,1
stop_area:SA_13,,Aérostiers,43.60947421320245,1.4898932880716664,1,,1
stop_area:SA_130,,Université Paul Sabatier,43.56064759513288,1.4635467242329527,1,,1
stop_area:SA_1300,,Le Grand,43.71630799672749,1.4510709283892593,1,,1
stop_area:SA_1303,,Le Fossat,43.6886804444482,1.5039455047872419,1,,1
stop_area:SA_1304,,Montségur,43.599296409637105,1.6042946017681738,1,,2
stop_area:SA_1305,,Ecole Croix-Rouge,43.605124085710564,1.387115881079543,1,,1
stop_area:SA_1307,,Mazades,43.62387779148161,1.4369123640464887,1,,1
stop_area:SA_1309,,Saint-Jean Clinique de L'Union,43.65085377741933,1.5096973588618245,1,,1
stop_area:SA_1310,,Larroque,43.66559428090855,1.297313466254991,1,,2
stop_area:SA_1311,,Déodat de Séverac,43.58965441205892,1.422028084751532,1,,1
stop_area:SA_1312,,De Croutte,43.568563036254176,1.377965079287858,1,,1
stop_area:SA_1313,,Fonsegrives Ginestière,43.58719180447199,1.539531009875007,1,,1
stop_area:SA_1314,,Mairie Saint-Orens,43.55244667074908,1.5337636585770553,1,,1
stop_area:SA_1315,,Alpilles,43.58042504525699,1.329104274974774,1,,1
stop_area:SA_1316,,Alphonse Daudet,43.69072826873032,1.4376515786910402,1,,1
stop_area:SA_1317,,Jean Petit,43.6050803117886,1.3616457643253188,1,,1
stop_area:SA_1320,,Ecole Bruguières,43.724024441372976,1.4100259340425845,1,,2
stop_area:SA_1322,,Keller,43.7124929739797,1.45957901638476,1,,1
stop_area:SA_1323,,Prat,43.52836616303528,1.4818660343738206,1,,1
stop_area:SA_1324,,Cheverry,43.56218218200256,1.406808018961253,1,,1
stop_area:SA_1325,,Eglise Corronsac,43.47469589063595,1.495126426537826,1,,1
stop_area:SA_1327,,Montrabé Stade,43.64758588925133,1.5280588657471945,1,,1
stop_area:SA_1328,,Ecarts,43.560503714127655,1.3572812759669186,1,,1
stop_area:SA_1329,,De Gaulle,43.642942252548124,1.3867286783742847,1,,1
stop_area:SA_1330,,Beaucru,43.491394493963114,1.3819351048822126,1,,1
stop_area:SA_1331,,Belberaud La Balme,43.506568262791745,1.5544066083773256,1,,1
stop_area:SA_1332,,Belle Paule,43.5949063988875,1.4644064415483877,1,,1
stop_area:SA_1333,,Marcel Dassault,43.64186568554532,1.3685615135338098,1,,1
stop_area:SA_1335,,Dewoitine,43.64740466082962,1.335861698455585,1,,1
stop_area:SA_1336,,Charbonnière,43.57705297033254,1.442923486135159,1,,2
stop_area:SA_1338,,Secteurs B et C,43.63787382565799,1.3305491408016894,1,,1
stop_area:SA_1339,,Rouergue,43.583774872501124,1.3330433879406887,1,,2
stop_area:SA_134,,Griffon,43.559527575433684,1.5013748697734906,1,,1
stop_area:SA_1340,,Buette,43.65035956125805,1.3412933172077033,1,,2
stop_area:SA_1341,,Pradié,43.52760998415066,1.371662484124372,1,,1
stop_area:SA_1343,,Reynerie,43.57022828811654,1.401936747131694,1,,1
stop_area:SA_1344,,Maurys,43.723176413435816,1.43539460863679,1,,1
stop_area:SA_1345,,Prologue,43.547970213970274,1.5081957375465895,1,,1
stop_area:SA_1346,,Capdenier,43.578912380870634,1.4907952441221035,1,,1
stop_area:SA_1347,,Place Bila,43.62725784516968,1.4591011393704862,1,,1
stop_area:SA_1349,,Bernières,43.55695054840443,1.5280380718201803,1,,2
stop_area:SA_135,,Les Plassines,43.627260128987324,1.547011595968495,1,,2
stop_area:SA_1353,,Pins,43.69791388653769,1.4752049654223471,1,,1
stop_area:SA_1355,,Collège Labitrie,43.57877572187685,1.3248307159016544,1,,1
stop_area:SA_1356,,Coubertin,43.720909931935545,1.4126398396062239,1,,2
stop_area:SA_1357,,Marengo-SNCF,43.61035473585677,1.455448792463801,1,,1
stop_area:SA_1359,,Max Linder,43.60906399389316,1.5072093600239203,1,,1
stop_area:SA_136,,Cauterets,43.61552570063753,1.3994716775773772,1,,1
stop_area:SA_1360,,Pyrénées,43.51296179986371,1.3872808945326067,1,,1
stop_area:SA_1362,,Clairfont,43.54213255313141,1.4155062049596019,1,,1
stop_area:SA_1363,,Pépinière Basso Cambo,43.566728339477,1.38628845693682,1,,1
stop_area:SA_1364,,Gare SNCF Baziège,43.45379050979088,1.6209657553937415,1,,1
stop_area:SA_1366,,Iles,43.55803930660314,1.519067814621471,1,,1
stop_area:SA_1367,,Pastel,43.515975053097186,1.5597241452102255,1,,1
stop_area:SA_1368,,Mairie Blagnac,43.63518627437057,1.3965619593551508,1,,1
stop_area:SA_1369,,Mounède,43.5719436752001,1.3830560125850346,1,,1
stop_area:SA_137,,Semard,43.699108543622884,1.4032984088801683,1,,2
stop_area:SA_1370,,Odyssud-Ritouret,43.63588617219995,1.386271754509836,1,,1
stop_area:SA_1371,,Benech,43.533506437436806,1.2265691080213685,1,,1
stop_area:SA_1372,,Montbrun Lauragais Roumieu,43.443900741081904,1.5155356586601627,1,,2
stop_area:SA_1373,,Matabiau Gare SNCF,43.611140728991245,1.4528797939465357,1,,1
stop_area:SA_1374,,Salas Montjoie,43.54002234230875,1.4626785411588163,1,,2
stop_area:SA_1375,,Guilhemery,43.6026993359062,1.4567997714210603,1,,1
stop_area:SA_1376,,Negreneys,43.62400983737909,1.4443876242557687,1,,1
stop_area:SA_1377,,IUC,43.5552105606409,1.4266646037814266,1,,1
stop_area:SA_1378,,Moulin de la Jalousie,43.52022514417392,1.189463950564765,1,,1
stop_area:SA_1379,,Cabanon,43.57759379061093,1.3509502405392897,1,,1
stop_area:SA_138,,Place Georges Brassens,43.648537473434594,1.3760724593766485,1,,1
stop_area:SA_1381,,Chemin de Borderouge,43.64306151689085,1.4567902041396767,1,,2
stop_area:SA_1382,,Atlanta,43.64288032361729,1.4677354316751794,1,,1
stop_area:SA_1387,,Jules Julien,43.573720081487494,1.4520968465070367,1,,1
stop_area:SA_1388,,Lac,43.59607989085143,1.5639634380288363,1,,1
stop_area:SA_1389,,Cimetière Balma,43.60014192284123,1.5070787156288359,1,,1
stop_area:SA_139,,Mirabelles,43.67890616507937,1.454135511282971,1,,1
stop_area:SA_1390,,Charlary,43.66805294427325,1.511390679952878,1,,1
stop_area:SA_1391,,Eglise Bonnefoy,43.619132787945304,1.4565877172213062,1,,1
stop_area:SA_1392,,Grande-Bretagne,43.601865904515584,1.4037084971067917,1,,1
stop_area:SA_1393,,Collège Jean Rostand,43.6046427950136,1.5078853012058873,1,,1
stop_area:SA_1395,,Provence,43.58194090896094,1.4576718924752217,1,,1
stop_area:SA_1396,,Beauvoir,43.5558598554611,1.5267206372264845,1,,1
stop_area:SA_1398,,Bordelongue,43.570642238430445,1.4170244620071404,1,,1
stop_area:SA_1399,,Prairie,43.70052155961936,1.4077301639965902,1,,1
stop_area:SA_14,,ZI Petit Paradis,43.713248596657444,1.3965863303347499,1,,2
stop_area:SA_1401,,Aérospatiale,43.62303541433094,1.3907580210247419,1,,2
stop_area:SA_1402,,Base Aérienne,43.53799987056785,1.3695082755481973,1,,1
stop_area:SA_1403,,Silvio Trentin,43.624227075902816,1.428533004452356,1,,1
stop_area:SA_1404,,Mairie Saint-Alban,43.69274062719668,1.4140011325716288,1,,1
stop_area:SA_1405,,Hespérides,43.72724204817522,1.4247849608899572,1,,1
stop_area:SA_1408,,Clément Ader,43.58744201324766,1.346863891423673,1,,1
stop_area:SA_1409,,Collège,43.522990983982865,1.3583770105131512,1,,1
stop_area:SA_141,,Montségur,43.52000567988273,1.329550852690296,1,,1
stop_area:SA_1410,,Montel,43.58613171587099,1.3411638372479138,1,,1
stop_area:SA_1411,,AFPA,43.558687577930165,1.4978888510989714,1,,1
stop_area:SA_1412,,Magre,43.575932878828006,1.3834294990238771,1,,1
stop_area:SA_1413,,Mondouzil ZA Les Landes,43.63922540866237,1.555372193699031,1,,1
stop_area:SA_1416,,Chêne Vert,43.51023527473958,1.326913592227694,1,,1
stop_area:SA_1418,,Patinoire-Barradels,43.640398335356224,1.3823808579247912,1,,1
stop_area:SA_1419,,Mairie Aigrefeuille,43.568194210283075,1.588892953835413,1,,1
stop_area:SA_142,,Pujibet,43.63508585207998,1.455419493856468,1,,1
stop_area:SA_1420,,Passerieu,43.57972946729965,1.3918595990492606,1,,1
stop_area:SA_1421,,Mairie Villeneuve Tolosane,43.525017710400014,1.344430485050896,1,,1
stop_area:SA_1422,,Cimetière Lapeyrouse,43.69083078903959,1.5154949767237764,1,,1
stop_area:SA_1423,,Maison de Retraite,43.563679362484535,1.2994051528893347,1,,1
stop_area:SA_1425,,Mairie Aucamville,43.66843474744759,1.4289622579515986,1,,1
stop_area:SA_1429,,Jasmin,43.603015918047156,1.5040318921138587,1,,1
stop_area:SA_143,,Tamaris,43.66974316664573,1.4972930827697135,1,,2
stop_area:SA_1430,,Pont Neuf,43.59977142163175,1.4412664379111424,1,,1
stop_area:SA_1431,,Barcelone Leclerc,43.60699315854641,1.4306250865613355,1,,1
stop_area:SA_1432,,Ducharme,43.49948341388852,1.5150232284122593,1,,1
stop_area:SA_1433,,Bosquets,43.522538720093294,1.4044771359155774,1,,1
stop_area:SA_1436,,Pissebaque,43.676417062633995,1.5399187340323957,1,,2
stop_area:SA_1437,,Langevin,43.58647981018496,1.4747187625071556,1,,1
stop_area:SA_1439,,Roussillon,43.6107263392763,1.5036929666755097,1,,1
stop_area:SA_144,,Mairie Aussonne,43.68359193313294,1.3203051217229917,1,,2
stop_area:SA_1440,,Cerbère,43.64832168246702,1.4736289719169957,1,,1
stop_area:SA_1441,,Giratoire Truffaut,43.63405087662431,1.5008393624329586,1,,1
stop_area:SA_1442,,Saint-Tropez,43.650061766671776,1.5024868611185132,1,,1
stop_area:SA_1443,,Stade,43.60828995526106,1.487798986293718,1,,2
stop_area:SA_1444,,Libellules,43.574331850763635,1.4577285016362111,1,,1
stop_area:SA_1445,,Renée Aspe,43.65378058520122,1.5070049727533055,1,,1
stop_area:SA_1446,,Place Henry Russell,43.5854789596019,1.4535653201303316,1,,1
stop_area:SA_1448,,Archives Départementales,43.59041423641679,1.4605475949336693,1,,1
stop_area:SA_1449,,Eglise de Portet,43.52222437078956,1.4076319262486618,1,,1
stop_area:SA_1450,,Vanniers,43.522875827221895,1.350510841223791,1,,1
stop_area:SA_1453,,Azalées,43.664252707195025,1.4717768077362186,1,,1
stop_area:SA_1454,,Grasse,43.64948736203735,1.4963874657133143,1,,2
stop_area:SA_1455,,Lespinet Struxiano,43.57817242679295,1.4684417544005184,1,,1
stop_area:SA_1456,,L'Auriol,43.58604253813559,1.5858638876732383,1,,1
stop_area:SA_1457,,Pyrénées,43.585725136536894,1.5253155089136907,1,,1
stop_area:SA_1458,,Cimetière Montberon,43.71293497915451,1.47675114316552,1,,1
stop_area:SA_1459,,Canal du Midi,43.61541504030525,1.4343762831450222,1,,1
stop_area:SA_146,,Ohnet,43.63863494523971,1.471269930458175,1,,1
stop_area:SA_1462,,Les Violettes,43.486804859373855,1.5313808036463068,1,,2
stop_area:SA_1463,,Pérignon,43.600602995801964,1.4642036972580004,1,,1
stop_area:SA_1466,,Violette,43.65985482641881,1.4707022951464774,1,,1
stop_area:SA_1467,,Pont du Béarnais,43.61212727051525,1.425184834451094,1,,1
stop_area:SA_1469,,Joseph Hubert,43.6248656225141,1.4916201118685284,1,,1
stop_area:SA_147,,Salvador Allende,43.65904137168677,1.4187983072363,1,,1
stop_area:SA_1470,,Ourmets,43.44163757134111,1.599643346032132,1,,2
stop_area:SA_1471,,Lycée International,43.61291338616064,1.3080286209942509,1,,1
stop_area:SA_1475,,Rodier,43.56653456491494,1.489577555326891,1,,1
stop_area:SA_1476,,Belle Hôtesse,43.659956516373235,1.4890507520003415,1,,2
stop_area:SA_1477,,Place Roquelaine,43.61213320104078,1.4483255092093723,1,,1
stop_area:SA_1479,,Rond-Point Langlade,43.56679231531011,1.4250584352141327,1,,1
stop_area:SA_148,,Estérel,43.543997718317286,1.4563098466555358,1,,2
stop_area:SA_1480,,Marine,43.582725611714835,1.4627725619237704,1,,2
stop_area:SA_1481,,Périac,43.6717246116581,1.3227273054438207,1,,1
stop_area:SA_1483,,Beau Séjour,43.534638807023164,1.5309940776828985,1,,2
stop_area:SA_1484,,Porte de Caillibens,43.6076819603923,1.4667753929081806,1,,2
stop_area:SA_1485,,Virebent,43.65278575467867,1.4637956191519805,1,,1
stop_area:SA_1486,,Montcalm,43.65342590633165,1.4845617373874576,1,,1
stop_area:SA_149,,Millet,43.68729534087972,1.4416139409109414,1,,1
stop_area:SA_1490,,Santos Dumont,43.5710454286396,1.4921196062017663,1,,1
stop_area:SA_1492,,Saint-Orens Eglise,43.552306270793615,1.5418149536689651,1,,1
stop_area:SA_1494,,Cité Amouroux,43.62988356396477,1.4688634270071281,1,,1
stop_area:SA_1496,,Route d'Albi,43.6796166222615,1.5391184772790034,1,,2
stop_area:SA_1497,,Crêtes,43.60717265868366,1.471804703999466,1,,1
stop_area:SA_1498,,Eglise Saint-Simon,43.557422989660274,1.3805115108920953,1,,1
stop_area:SA_1499,,Salvy,43.66391716296214,1.430658752694255,1,,1
stop_area:SA_15,,Caunes,43.640400880018205,1.4694855846243602,1,,1
stop_area:SA_150,,Brieux,43.62686143242905,1.4300582494595375,1,,1
stop_area:SA_1502,,Fages,43.584110801823215,1.4628941626887046,1,,1
stop_area:SA_1503,,Chamois,43.63942135358255,1.4444261712036959,1,,1
stop_area:SA_1504,,Lebas,43.577010507089945,1.4416482500608023,1,,1
stop_area:SA_1508,,Pagnol,43.58992975907384,1.319672178895257,1,,1
stop_area:SA_151,,Van Dyck,43.640370035299156,1.4398503622619292,1,,1
stop_area:SA_1511,,Olympe de Gouges,43.64422007704207,1.4448133906709302,1,,1
stop_area:SA_1513,,Commerce,43.54985389013294,1.5021577512478954,1,,1
stop_area:SA_1514,,Stade Andromède,43.65534516786799,1.3814682962834703,1,,1
stop_area:SA_1515,,Mairie Pompertuzat,43.489110582759025,1.5142885256075385,1,,1
stop_area:SA_1516,,Baroux,43.591820129017265,1.4783171263267432,1,,1
stop_area:SA_1517,,Jolimont,43.61508376486836,1.4631716666883257,1,,1
stop_area:SA_1518,,Verte Prairie,43.51833036352655,1.5046524237140717,1,,1
stop_area:SA_1519,,Ecole Espagnole,43.57625323658945,1.3953145806569698,1,,1
stop_area:SA_152,,Louin,43.628938921837275,1.4499223937016505,1,,1
stop_area:SA_1521,,Air France Industries,43.6455566747257,1.3641169000792432,1,,2
stop_area:SA_1523,,Vents d'Autan,43.65864248408317,1.4876929071185647,1,,1
stop_area:SA_1524,,La Tour,43.51085844918825,1.5634298675219955,1,,1
stop_area:SA_1525,,Ecole Gleyze-Vieille,43.54448692941188,1.463816183289619,1,,1
stop_area:SA_1526,,Côte de Cornaudric,43.661653899325074,1.4760470590422958,1,,2
stop_area:SA_1528,,Tricou,43.5384402034986,1.5318905352998824,1,,2
stop_area:SA_1529,,Chalets,43.67648160584863,1.4561509333977338,1,,1
stop_area:SA_153,,Glassière,43.55593193473999,1.3634625600614,1,,1
stop_area:SA_1530,,Bibliothèque,43.582739144801515,1.390255528929939,1,,1
stop_area:SA_1531,,Guyenne-Berry,43.630871562808345,1.3903575283134297,1,,1
stop_area:SA_1532,,Lilas,43.54134827998896,1.34697196018199,1,,2
stop_area:SA_1537,,Résistance,43.543586986646766,1.343809480222702,1,,1
stop_area:SA_1538,,Bourdettes,43.552635650235636,1.3553350813888712,1,,1
stop_area:SA_1539,,Tuileries,43.60138814856715,1.332230800421084,1,,1
stop_area:SA_1540,,Bernadotte,43.60850494879664,1.5110880985379802,1,,1
stop_area:SA_1541,,Porte du Milieu,43.61022541653267,1.4648402061171146,1,,1
stop_area:SA_1542,,Mairie Auzeville,43.52984532945608,1.4796802465068088,1,,1
stop_area:SA_1546,,Jeanne d'Arc,43.60911880613843,1.4460770876747353,1,,1
stop_area:SA_1549,,Village d'Entreprise,43.5421490297262,1.5117045951769565,1,,1
stop_area:SA_1550,,Eglise Ramonville,43.55109920484119,1.4692488923797484,1,,1
stop_area:SA_1551,,Route de Blagnac,43.61866862871724,1.4072864561525777,1,,1
stop_area:SA_1552,,La Douce,43.49097949847443,1.642371268927948,1,,2
stop_area:SA_1553,,Le Chapitre,43.63296826742578,1.5078547737545662,1,,2
stop_area:SA_1554,,Terrefort,43.5693219979311,1.5808580277480777,1,,1
stop_area:SA_1555,,Lestang,43.56023587783306,1.3941665580588072,1,,1
stop_area:SA_1556,,Morbihan,43.61726564915138,1.3190846446279445,1,,1
stop_area:SA_1557,,Marnac,43.54575841331073,1.4784102522952969,1,,1
stop_area:SA_1558,,Cazeneuve,43.496383815693044,1.3083926277837301,1,,2
stop_area:SA_1559,,Amandier,43.57972565285391,1.337518086384972,1,,1
stop_area:SA_156,,Pl de l'Armée d'Afrique,43.62380603444957,1.4544418082883157,1,,1
stop_area:SA_1560,,Cinéma Occitane,43.539613062167575,1.5125863285578072,1,,1
stop_area:SA_1562,,Ronsard,43.583383992365555,1.4069194505373137,1,,1
stop_area:SA_1563,,INRAE,43.524926278883584,1.500314649072182,1,,1
stop_area:SA_1565,,Assalit,43.606955089307,1.4660312987580857,1,,1
stop_area:SA_1566,,Ingine,43.52648193222165,1.5641256154691328,1,,1
stop_area:SA_1567,,La Chauge,43.615638115172615,1.249895507835904,1,,2
stop_area:SA_1568,,Brunet Faure,43.567699541895635,1.3285686087739723,1,,2
stop_area:SA_157,,CNES,43.5563050272441,1.4814656130808201,1,,2
stop_area:SA_1570,,Cité Madrid,43.614235749948286,1.4112563181315532,1,,1
stop_area:SA_1572,,Landes,43.572955788277405,1.4165435771212664,1,,1
stop_area:SA_1574,,Moissons,43.68671572522663,1.4440856153645532,1,,1
stop_area:SA_1575,,Turlu,43.657607419575555,1.4383738889185596,1,,1
stop_area:SA_1576,,Açores,43.653966276952026,1.5035649677521534,1,,1
stop_area:SA_1578,,Mairie Seysses,43.49878553415266,1.310957055903749,1,,1
stop_area:SA_1579,,Lycée Fonsorbes,43.5278295258826,1.20932120241133,1,,1
stop_area:SA_158,,Labouche,43.55055222635635,1.4015433185574904,1,,2
stop_area:SA_1580,,Place du Souvenir,43.553647375074966,1.5428652638967122,1,,2
stop_area:SA_1582,,Céciré,43.61279305790702,1.570229913875962,1,,1
stop_area:SA_1583,,Vivier,43.53788596276353,1.3398808002807774,1,,1
stop_area:SA_1584,,Escalquens La Caprice,43.531532020551026,1.552203613549369,1,,1
stop_area:SA_1585,,Rémusat,43.605217039910364,1.443809487338909,1,,1
stop_area:SA_1586,,Campus de Bissy,43.53848844714078,1.5155646580079085,1,,1
stop_area:SA_1589,,Lac Saint-Clair,43.614182439914394,1.5086065026941984,1,,1
stop_area:SA_159,,Navarre,43.605186636429345,1.479365314135315,1,,1
stop_area:SA_1591,,Grande Rue,43.45492326911624,1.6166392695910339,1,,2
stop_area:SA_1592,,Lanfant,43.596295417064816,1.46221903456189,1,,1
stop_area:SA_1593,,Giratoire Pluton,43.59637140495312,1.3013896515818473,1,,2
stop_area:SA_1595,,Jules Verne,43.68709805515634,1.4224161523470524,1,,1
stop_area:SA_1596,,Lesperous,43.52971344859467,1.5540772191388657,1,,1
stop_area:SA_1597,,Boulodrome,43.515132733946594,1.1761743640578002,1,,1
stop_area:SA_1598,,Stade,43.680523393723895,1.5333786374361156,1,,1
stop_area:SA_1599,,Rebel,43.67749180497183,1.5429306075170983,1,,2
stop_area:SA_16,,Jean Moulin,43.520922693375674,1.5107655445978487,1,,1
stop_area:SA_160,,Les Abattoirs,43.60039812190683,1.4289493719281297,1,,1
stop_area:SA_1600,,Vasseur,43.635707003240825,1.4729746124016632,1,,1
stop_area:SA_1601,,Jacinthes,43.59251176379847,1.476053513137223,1,,1
stop_area:SA_1602,,Daurat,43.6291386950515,1.3792033148847136,1,,1
stop_area:SA_1604,,Belle Fontaine,43.641417622802585,1.517998255664912,1,,1
stop_area:SA_1605,,Monso,43.55926970620537,1.5028982397378012,1,,1
stop_area:SA_1606,,La Seillonne,43.62583504620687,1.5294957597800265,1,,1
stop_area:SA_1607,,Bruguières Gutenberg,43.72052838198249,1.396973071048034,1,,1
stop_area:SA_1609,,Fournier Airbus,43.60742790119676,1.3664640104937065,1,,1
stop_area:SA_161,,Bidart,43.64999778582924,1.4768636436263014,1,,1
stop_area:SA_1611,,Rateau,43.62525279880702,1.4269953066536156,1,,1
stop_area:SA_1613,,Eglise de Mondouzil,43.635136105509964,1.5578749253216417,1,,1
stop_area:SA_1614,,Bayonne,43.64966422183414,1.4717790214271278,1,,1
stop_area:SA_1615,,Garin,43.579732182874025,1.484340886599641,1,,2
stop_area:SA_1616,,Cammas,43.675445714910964,1.5443734286191109,1,,2
stop_area:SA_162,,Bordeneuve,43.666911864793136,1.28325677856935,1,,1
stop_area:SA_1620,,Camargue,43.584135302799446,1.326625720342447,1,,1
stop_area:SA_1621,,Carmes,43.598096085479575,1.4455231852848842,1,,1
stop_area:SA_1622,,Vieille Côte,43.7189423653707,1.4278559287844845,1,,2
stop_area:SA_1623,,Le Merlet,43.50358303641556,1.5104778403086416,1,,2
stop_area:SA_1625,,Murillo,43.60511491821953,1.4072666526748232,1,,2
stop_area:SA_1626,,Barrière de Bayonne,43.597773430477844,1.4200493391475515,1,,1
stop_area:SA_1627,,Aérodrome,43.594572935651094,1.4975628233083775,1,,1
stop_area:SA_1628,,Baqué,43.62341414451151,1.4343973522418338,1,,1
stop_area:SA_1629,,Launaguet Nobles,43.67050709798296,1.4453755729388664,1,,1
stop_area:SA_163,,Fauvettes,43.561652801330375,1.2936066187668316,1,,1
stop_area:SA_1631,,Soleil d'Or,43.61626270876025,1.4091072145808479,1,,1
stop_area:SA_1633,,Champollion,43.54503012094013,1.396136926511291,1,,1
stop_area:SA_1634,,La Place,43.47231905261036,1.491207460741662,1,,1
stop_area:SA_1635,,Lafaurie,43.57388843666697,1.4913184694589545,1,,1
stop_area:SA_1636,,Gare SNCF Montrabé,43.644563962905785,1.5244725238835064,1,,1
stop_area:SA_1637,,A. Bernard,43.61149970478862,1.4388456992788443,1,,1
stop_area:SA_1638,,Jules Ferry,43.632446872861365,1.431755842347168,1,,1
stop_area:SA_1639,,Forgues,43.498603515313455,1.309302157305013,1,,2
stop_area:SA_164,,Renée Aspe,43.680537775226824,1.4529354464062822,1,,1
stop_area:SA_1641,,Roche,43.7090060495899,1.4713672995830347,1,,1
stop_area:SA_1642,,Cabirol,43.597355213271584,1.328205501385687,1,,1
stop_area:SA_1643,,Communauté Religieuse,43.61129252768384,1.531974033952662,1,,1
stop_area:SA_1644,,Roussillon,43.56761746129183,1.280645799615467,1,,2
stop_area:SA_1645,,Seillonne,43.666347169272136,1.3704687226028285,1,,2
stop_area:SA_1646,,Anges,43.62219171022994,1.4370441341679636,1,,1
stop_area:SA_1647,,Mairie Cornebarrieu,43.64923202709087,1.3263725023341733,1,,1
stop_area:SA_1651,,Gymnase,43.669141363316285,1.5046836166519613,1,,2
stop_area:SA_1653,,Mairie Donneville,43.47369852158605,1.5505766430021477,1,,2
stop_area:SA_1654,,Av. de Rangueil,43.57748015013569,1.4505920421405176,1,,1
stop_area:SA_1655,,Jardinerie,43.6070435580257,1.3695154288849443,1,,1
stop_area:SA_1657,,Lagardère,43.65434651030508,1.3609684454900277,1,,1
stop_area:SA_1658,,Platanes,43.666316356165424,1.5241043215830294,1,,1
stop_area:SA_1659,,Coteaux,43.532529970459976,1.476112360688139,1,,1
stop_area:SA_166,,Loti,43.57022376119191,1.3086574193471683,1,,1
stop_area:SA_1660,,Sironis,43.621076784336125,1.5123252835566237,1,,2
stop_area:SA_1662,,Heredia,43.61236829229603,1.4674078387623055,1,,1
stop_area:SA_1663,,Aérodrome,43.575439426757356,1.4721279414888486,1,,1
stop_area:SA_1664,,A320,43.60935729727808,1.3579833576642657,1,,2
stop_area:SA_1665,,Château,43.65067947073639,1.4609905318102994,1,,2
stop_area:SA_1666,,Montels,43.58691260593832,1.5208557275592638,1,,1
stop_area:SA_1667,,Gallieni,43.57315820039296,1.4242490064338253,1,,1
stop_area:SA_167,,Montjoie,43.587227465275774,1.3493512794945486,1,,1
stop_area:SA_1671,,Massebiau,43.68243828245046,1.4834936741578506,1,,1
stop_area:SA_1672,,Fonsegrives Collège,43.579554757119226,1.538715974206879,1,,1
stop_area:SA_1673,,Bicinis,43.504815748290994,1.611514638509726,1,,1
stop_area:SA_1674,,Charlas,43.56440700411111,1.318114415151019,1,,1
stop_area:SA_1677,,Mairie Roques,43.50850902515011,1.3753333951251612,1,,1
stop_area:SA_1678,,Cézanne,43.59516218685597,1.5053034642805296,1,,1
stop_area:SA_1679,,Complexe Agricole,43.53433482620416,1.4847348827845661,1,,1
stop_area:SA_168,,Lapin,43.65185423157782,1.4325656591973712,1,,1
stop_area:SA_1680,,Le Pas du Merle,43.48429718369409,1.6601486609663123,1,,2
stop_area:SA_1681,,Berbie Blaize,43.70072746509075,1.3776772394722454,1,,1
stop_area:SA_1682,,Granaillet,43.4907297949748,1.5259919992721833,1,,2
stop_area:SA_1683,,Pont de Ginestous,43.63319409141286,1.4229647506854797,1,,2
stop_area:SA_1684,,Antibes,43.64794094533971,1.4897152600892831,1,,2
stop_area:SA_1685,,Max Planck,43.54956932454108,1.514915940830411,1,,2
stop_area:SA_1687,,Château d'eau,43.618723713883185,1.5048350573032159,1,,2
stop_area:SA_1688,,Puget,43.623193310921735,1.4423860121045369,1,,1
stop_area:SA_1689,,Belloc Cité,43.60638644046752,1.4743715812423486,1,,1
stop_area:SA_169,,Corneillan,43.583152353226424,1.3774813707466775,1,,1
stop_area:SA_1692,,Lasserre,43.59293521809919,1.5736204830136409,1,,1
stop_area:SA_1693,,Jean Moulin,43.66669327516266,1.4979373253983281,1,,1
stop_area:SA_1694,,La Bisto,43.66845486678621,1.5150669788446653,1,,1
stop_area:SA_1695,,Ecole Police et Cadastre,43.59526762963203,1.3823675459213567,1,,1
stop_area:SA_1696,,Dugua,43.55680814426908,1.4562099406391502,1,,1
stop_area:SA_1698,,Lanusse,43.63563241450091,1.4528362082468385,1,,1
stop_area:SA_1699,,Lauragais,43.51586301543785,1.552191554039626,1,,1
stop_area:SA_170,,Gare de Labège,43.53141879417275,1.532970340380344,1,,1
stop_area:SA_1700,,Etats-Unis Fondeyre,43.64331634968544,1.4279217808096423,1,,1
stop_area:SA_1701,,Bastié,43.51758694642654,1.5578459608665096,1,,2
stop_area:SA_1703,,Rebeillou,43.597017057709735,1.5393652698935911,1,,2
stop_area:SA_1705,,Place des Marots,43.60017975074814,1.3230473409894743,1,,2
stop_area:SA_1706,,Ateliers Municipaux,43.5209245249956,1.3977761090083636,1,,1
stop_area:SA_1707,,Jean Jaurès,43.60583317430066,1.4491300230508017,1,,1
stop_area:SA_1708,,Récollets,43.58388719142226,1.4480913025331308,1,,1
stop_area:SA_1709,,Val D'Aran,43.61146062631652,1.3300258556542988,1,,1
stop_area:SA_171,,Gauguin,43.64126302988189,1.3878953746596379,1,,1
stop_area:SA_1710,,Mitterrand,43.58766298975539,1.3376159399985559,1,,2
stop_area:SA_1711,,Gleyze-Vieille,43.546884679262824,1.466065131779053,1,,1
stop_area:SA_1712,,Europe,43.467829353173826,1.3312650487126096,1,,1
stop_area:SA_1713,,Flambère,43.6084535780536,1.390442298257712,1,,1
stop_area:SA_1714,,Vendanges,43.67984448834531,1.4314242292613821,1,,1
stop_area:SA_1715,,Capitole,43.60446821376056,1.4455430154109983,1,,1
stop_area:SA_1716,,Bouriette,43.6086519404975,1.3741332378136752,1,,1
stop_area:SA_1717,,Cambard,43.62933416638347,1.4763782557958496,1,,1
stop_area:SA_1719,,Passerelle,43.615177048793235,1.4425277688425493,1,,1
stop_area:SA_172,,Place du Morvan,43.58088088589633,1.4090312447269282,1,,1
stop_area:SA_1720,,Canteloup,43.54131603041943,1.5318475312719373,1,,1
stop_area:SA_1722,,Plaine,43.673233767923,1.4096870861876942,1,,2
stop_area:SA_1723,,Cabanis,43.691371263443735,1.5063949423644978,1,,1
stop_area:SA_1724,,Pont des Minimes,43.615609461382164,1.4374133170974566,1,,1
stop_area:SA_1727,,Tourterelles,43.53539433999778,1.4732283197951705,1,,1
stop_area:SA_1728,,Sables,43.692928102634205,1.4176533427310376,1,,1
stop_area:SA_1729,,Colette,43.670524907985005,1.49517141030117,1,,2
stop_area:SA_173,,Suisse,43.61143867448516,1.4192957562740818,1,,1
stop_area:SA_1730,,Brunière,43.595250328376274,1.4431269416352428,1,,1
stop_area:SA_1731,,Terroir 3,43.70624602641465,1.3996572920613761,1,,1
stop_area:SA_1732,,Ramonville Port Sud,43.543081157097795,1.4902906059331023,1,,1
stop_area:SA_1733,,Cazals,43.62858732920648,1.4603274143866833,1,,1
stop_area:SA_1734,,Gabriel Fauré,43.593966328193865,1.3476448809316717,1,,1
stop_area:SA_1735,,Briqueterie,43.58974547760904,1.365309102090836,1,,1
stop_area:SA_1736,,Mont Ventoux,43.586601322148454,1.482210973237305,1,,1
stop_area:SA_1737,,Charlas,43.62973300307959,1.432703503672044,1,,1
stop_area:SA_1738,,Mairie Lauzerville,43.55635346817639,1.56408345466863,1,,2
stop_area:SA_174,,Mairie Labastide Beauvoir,43.482038764473195,1.6662047211535624,1,,2
stop_area:SA_1740,,Cèdres,43.65906543833604,1.477843638872399,1,,1
stop_area:SA_1741,,Calicéo,43.64924732743847,1.504346338675455,1,,1
stop_area:SA_1742,,Arènes Romaines,43.61383345935931,1.397747992854738,1,,1
stop_area:SA_1744,,Naurouze,43.609131788848416,1.3446301636155618,1,,1
stop_area:SA_1745,,Mairie Tournefeuille,43.582636050104,1.3451704123126318,1,,1
stop_area:SA_1747,,En Poutet,43.517463914716004,1.5484552000344831,1,,1
stop_area:SA_1748,,Centre de tri postal,43.59234566359008,1.2997312984058924,1,,2
stop_area:SA_1749,,Blum,43.51415594133548,1.5042414629786989,1,,1
stop_area:SA_1750,,Furet,43.654079399917876,1.4615882565863028,1,,1
stop_area:SA_1756,,La Franqui,43.64644501942978,1.4785697347883786,1,,2
stop_area:SA_1757,,Décamps,43.60471854523571,1.4178910297708316,1,,2
stop_area:SA_1758,,Rigal,43.64261308781349,1.4391330753761618,1,,1
stop_area:SA_1759,,Vallauris,43.65102905334479,1.5001132021268948,1,,1
stop_area:SA_176,,CNES- IAS,43.56256417000268,1.4809843472889823,1,,1
stop_area:SA_1760,,Douzans,43.46818729668488,1.328497651200739,1,,1
stop_area:SA_1761,,Drémil Le Colombier,43.573594635672805,1.6110127246744215,1,,2
stop_area:SA_1762,,Cité des Combattants,43.56790724483039,1.4129332021008434,1,,1
stop_area:SA_1763,,Passerelle Saint-Sauveur,43.59420063669468,1.457175076653604,1,,1
stop_area:SA_1764,,Amouroux,43.629842226294194,1.466515323102986,1,,1
stop_area:SA_1765,,Bagatelle,43.57992185141604,1.4120763383569113,1,,1
stop_area:SA_1766,,Gonin,43.57370601997446,1.4836044435837554,1,,1
stop_area:SA_1767,,Bon Voisin,43.57016383679848,1.4505578940807524,1,,1
stop_area:SA_1768,,Mistral,43.64865531571612,1.5325477192508787,1,,1
stop_area:SA_1769,,Armentières,43.57184433981783,1.4864854632618432,1,,1
stop_area:SA_1770,,Panorama,43.620198398514894,1.514836634717118,1,,1
stop_area:SA_1773,,Labège Couder,43.542300278297866,1.5325194019978512,1,,2
stop_area:SA_1774,,Bruguières Mairie,43.72753720977563,1.4115699208451506,1,,1
stop_area:SA_1775,,Angély,43.566283077060305,1.3746213422123519,1,,1
stop_area:SA_1776,,Odeillo,43.58018591161521,1.383396178898599,1,,1
stop_area:SA_1777,,Piquemil,43.612344914456926,1.3194860200432676,1,,1
stop_area:SA_1778,,Gaston Bonheur,43.45642588037959,1.32958772520184,1,,1
stop_area:SA_1779,,Le Brix,43.62263604780447,1.462842151375372,1,,1
stop_area:SA_178,,Saint-Gaudens,43.58505658532247,1.4103556890314093,1,,1
stop_area:SA_1783,,Artaud,43.52073821182908,1.5054689611278134,1,,1
stop_area:SA_1784,,Vallon,43.55926326031398,1.4570916243754268,1,,1
stop_area:SA_1785,,Beau Soleil,43.67021214671378,1.3734068700141306,1,,1
stop_area:SA_1786,,Roguet,43.59704570070272,1.4264722663980987,1,,2
stop_area:SA_1787,,Aussonnelle,43.69092539519151,1.3568739407674946,1,,1
stop_area:SA_1788,,Mûriers,43.579504129204125,1.2853666837357816,1,,1
stop_area:SA_179,,Moureau,43.710855452196945,1.4629545181846657,1,,2
stop_area:SA_1790,,Passerelle Airbus,43.60914325162577,1.3669995530796029,1,,1
stop_area:SA_1791,,L'Union Grande Halle,43.65541796079143,1.481653126549294,1,,1
stop_area:SA_1792,,Cité Scolaire Rive Gauche,43.58427140494277,1.3996114838542095,1,,1
stop_area:SA_1793,,Hôpital Purpan,43.607458539995754,1.3975479848290877,1,,1
stop_area:SA_1795,,Roubiéchou,43.65469250112581,1.4322458032428198,1,,1
stop_area:SA_1796,,Mayrine,43.52638475872305,1.4840808224017445,1,,1
stop_area:SA_1797,,En Blanc,43.48029130568434,1.6904953978007282,1,,2
stop_area:SA_1798,,Empalot Sud,43.577306978602984,1.4372465393693752,1,,1
stop_area:SA_1799,,Ader,43.69296629209292,1.3545791479511746,1,,1
stop_area:SA_18,,Clément Ader,43.564001735874534,1.4905007720504142,1,,1
stop_area:SA_180,,Pradettes,43.457722032594795,1.6058514034110507,1,,1
stop_area:SA_1800,,Tournefeuille Lycée,43.575643396729696,1.314644654856662,1,,1
stop_area:SA_1801,,Marly,43.62635744809899,1.3985252506102535,1,,1
stop_area:SA_1802,,Pader,43.636500332241106,1.433060540190515,1,,1
stop_area:SA_1803,,Colonel Rémy,43.635332448983654,1.464941476422939,1,,1
stop_area:SA_1805,,Guyenne,43.57713083520112,1.4101733779745869,1,,1
stop_area:SA_1806,,Saint-Caprais,43.64758670825755,1.470630855598099,1,,1
stop_area:SA_1808,,Magne,43.543238039989845,1.2382015198421576,1,,1
stop_area:SA_1809,,Parc Alalouf,43.57765473443623,1.485734365741235,1,,1
stop_area:SA_1811,,Jasmin,43.662845954399096,1.4744819377607974,1,,1
stop_area:SA_1812,,Champs de l'Hers,43.64942328945652,1.4653895291657546,1,,1
stop_area:SA_1813,,Ramonville Sud,43.5375108531922,1.4820201055910862,1,,1
stop_area:SA_1815,,Saliège,43.53420735035804,1.4099461533228554,1,,1
stop_area:SA_1816,,Buxtehude,43.64934491469455,1.3822694848823756,1,,1
stop_area:SA_1817,,Lespinasse Mairie,43.711095025101415,1.3916078586615896,1,,1
stop_area:SA_1818,,Talabot Nord,43.56451567492434,1.388210930454994,1,,1
stop_area:SA_1819,,Gendarmerie,43.4563803237977,1.580724933071081,1,,2
stop_area:SA_1820,,Chopin,43.64392325218635,1.4580815309217283,1,,1
stop_area:SA_1821,,Cité du Parc,43.568563579867096,1.40792230843823,1,,1
stop_area:SA_1822,,Ecole les Varennes,43.47732297413268,1.6879076321886424,1,,2
stop_area:SA_1823,,Eglise Villeneuve,43.522611310538686,1.3415677416489653,1,,1
stop_area:SA_1824,,Eglise Drémil,43.59686188173613,1.6015079336227784,1,,1
stop_area:SA_1825,,Touraine,43.573066702706704,1.4188579174365916,1,,2
stop_area:SA_1826,,Centre Commercial Blagnac,43.64765298901032,1.3694919279030746,1,,1
stop_area:SA_1827,,Guillaumet,43.61633978566543,1.47322703616365,1,,1
stop_area:SA_1829,,Avranches,43.634345437086374,1.4671130407651445,1,,1
stop_area:SA_1831,,Bourdette,43.55489581904748,1.4568054545746103,1,,1
stop_area:SA_1834,,Pré Vicinal,43.54006170280644,1.340529185237719,1,,1
stop_area:SA_1835,,Labourdette,43.72098929437307,1.4392362414218969,1,,1
stop_area:SA_1836,,Cigognes,43.55141287975011,1.4758197098524724,1,,1
stop_area:SA_1839,,Bordebasse,43.637690749255235,1.3717760624905329,1,,1
stop_area:SA_184,,Roses,43.65673243539379,1.473107925487857,1,,1
stop_area:SA_1840,,Sarah Bernhardt,43.651463186590064,1.4382274472454284,1,,1
stop_area:SA_1841,,Moulin Armand,43.53071538578142,1.4875893665825588,1,,1
stop_area:SA_1843,,Saint-Jean Pied de Port,43.64866386036307,1.484876777451902,1,,1
stop_area:SA_1845,,Biarritz,43.652127894879534,1.4831902932182994,1,,1
stop_area:SA_1846,,Saguens,43.52626961919845,1.378093016990846,1,,1
stop_area:SA_1849,,8 mai 1945,43.540677034528805,1.4817552621343988,1,,1
stop_area:SA_185,,Pont Rocade,43.59220720866764,1.4000636392415775,1,,1
stop_area:SA_1850,,Corraze,43.58137165524331,1.4854248540761026,1,,1
stop_area:SA_1851,,Demouilles,43.58910789323087,1.4569660645559972,1,,1
stop_area:SA_1852,,Bergeaud,43.49751302860974,1.3152412803184677,1,,1
stop_area:SA_1854,,Daste,43.58143358033978,1.4384945971020002,1,,1
stop_area:SA_1855,,Solidarité,43.60846218125465,1.4805153732817364,1,,1
stop_area:SA_1856,,Ecole Jules Ferry,43.68579106358911,1.3219722334098092,1,,2
stop_area:SA_1857,,Route de Cornebarrieu,43.62080283161203,1.3357567692727907,1,,1
stop_area:SA_1860,,Oratoire,43.609583638042686,1.3495591121909813,1,,1
stop_area:SA_1861,,Partanaïs,43.560410641230604,1.529977108159941,1,,1
stop_area:SA_1863,,Purpan,43.60908887813597,1.4020112953906922,1,,1
stop_area:SA_1864,,Bayès,43.55575851279908,1.3716842124478503,1,,1
stop_area:SA_1865,,Bachecame Petit Jean,43.54616722627474,1.3507444261079942,1,,1
stop_area:SA_1868,,Giordano Bruno,43.56460720518813,1.4687611822858184,1,,1
stop_area:SA_1871,,Glacière,43.64622212386527,1.426173022207802,1,,1
stop_area:SA_1872,,Loubiague,43.63195752899747,1.4438270401721924,1,,1
stop_area:SA_1874,,Soupetard Salonique,43.60936251016003,1.4706557009012151,1,,1
stop_area:SA_1875,,Centre Commercial Tournefeuille,43.58797570477027,1.3530913971882776,1,,1
stop_area:SA_1878,,Bisson,43.60831224490175,1.3828649667805981,1,,1
stop_area:SA_188,,Capoul,43.6065404153007,1.4143931923965414,1,,1
stop_area:SA_1880,,Quai Saint-Pierre,43.603620863720124,1.4351674067739348,1,,1
stop_area:SA_1881,,La Ramée,43.56837937296747,1.3655014283606988,1,,1
stop_area:SA_1883,,Soeurs,43.63085952735513,1.3973399038048937,1,,1
stop_area:SA_1884,,Sports Universitaires,43.56143810998407,1.471019944409276,1,,1
stop_area:SA_1886,,Talazac,43.6027388125945,1.411514531491137,1,,1
stop_area:SA_1887,,Aucamville Collège,43.675509798233065,1.4245524618748753,1,,1
stop_area:SA_1888,,Bel Air,43.51280759473614,1.32921582779168,1,,1
stop_area:SA_1889,,Barthon,43.599185527183096,1.5993574987289527,1,,1
stop_area:SA_189,,Fer à Cheval,43.593023828166636,1.4349118820778877,1,,1
stop_area:SA_1890,,Victor Hugo,43.676513256625064,1.4778215569838307,1,,2
stop_area:SA_1891,,Petit Marquis,43.57034342730181,1.335716085078158,1,,1
stop_area:SA_1892,,Croix d'Alliez,43.66158962206373,1.305677461218227,1,,1
stop_area:SA_1893,,Collège JP Vernant,43.59462174781666,1.4879273067902343,1,,1
stop_area:SA_1894,,Centre Commercial Purpan Est,43.60911768617473,1.397297077672873,1,,1
stop_area:SA_1895,,Etchepare,43.5824272397225,1.371100392643695,1,,2
stop_area:SA_1897,,Collège André Malraux,43.54906897648598,1.4795171293680394,1,,1
stop_area:SA_1898,,Gironis - Mémorial AZF,43.56370979726719,1.4253264403909942,1,,1
stop_area:SA_1899,,Delpy,43.59336227467227,1.4308662557613392,1,,1
stop_area:SA_190,,Collège de Portet,43.53030492027449,1.4103874785284514,1,,1
stop_area:SA_1901,,Pasteur,43.57180437101845,1.3323600192568472,1,,1
stop_area:SA_1902,,Quart,43.52411024684607,1.3844423989916739,1,,2
stop_area:SA_1903,,Clair Matin,43.66390164260172,1.5014064012986836,1,,1
stop_area:SA_1905,,Coupette,43.59450811992942,1.5709461075869744,1,,1
stop_area:SA_1906,,Lécrivain,43.57378559256202,1.4888610714299007,1,,2
stop_area:SA_1907,,Harkis,43.66801673883243,1.5022184743619396,1,,1
stop_area:SA_1908,,Ginestière,43.62855809972627,1.5412518971235758,1,,1
stop_area:SA_1909,,Accueil Cimetière,43.6400049899109,1.3290881576331461,1,,2
stop_area:SA_191,,Labourgade,43.54616995612396,1.5163809342924268,1,,1
stop_area:SA_1910,,Saouzelong,43.57946256414957,1.4593269515477083,1,,1
stop_area:SA_1911,,Clotasses,43.55497837399553,1.46735305743726,1,,1
stop_area:SA_1912,,Nasque,43.59785142176549,1.3211994649946388,1,,2
stop_area:SA_1913,,Chaussas,43.628386836593286,1.428560193594185,1,,1
stop_area:SA_1914,,Mairie Flourens,43.594486770217664,1.562370814818072,1,,1
stop_area:SA_1915,,Montaigne,43.56260666533329,1.3021785704981077,1,,1
stop_area:SA_1916,,Kiev,43.57051781718928,1.4086223452789495,1,,1
stop_area:SA_1917,,Théodore de Banville,43.640636672165456,1.4663314028527208,1,,1
stop_area:SA_1918,,Molinier,43.58402712369158,1.3922515212202369,1,,1
stop_area:SA_192,,Pradettes,43.58132980709136,1.3894919031269157,1,,1
stop_area:SA_1920,,Gamelin,43.5888239747026,1.4213138638387792,1,,1
stop_area:SA_1921,,INSA,43.573600197562854,1.4648841217712252,1,,1
stop_area:SA_1922,,Coustou,43.55962475012743,1.5345167336004781,1,,1
stop_area:SA_1923,,Béarn,43.536857468869215,1.3377632000332904,1,,1
stop_area:SA_1926,,Quatre Coins,43.68499416571432,1.5122384068984538,1,,1
stop_area:SA_1927,,Domaniaux,43.69272318474872,1.5091483807278216,1,,1
stop_area:SA_1929,,Mireille,43.63469078612761,1.5208923791434967,1,,1
stop_area:SA_1930,,Peyrandrieu,43.69594456976435,1.4508888537665576,1,,1
stop_area:SA_1931,,Mairie Belberaud,43.507869533180624,1.5691474311468279,1,,2
stop_area:SA_1933,,Le Moulin,43.48023825323793,1.5261815497307005,1,,2
stop_area:SA_1934,,Rachou,43.58655451629344,1.4528073675119821,1,,1
stop_area:SA_1935,,Tricheries,43.68112393058712,1.3665481750686796,1,,1
stop_area:SA_1938,,Chardonnet,43.60614441332779,1.4012561165659827,1,,1
stop_area:SA_1939,,La Serre Beauregard,43.476736080731946,1.500328625925448,1,,1
stop_area:SA_194,,Pouset,43.57063987796006,1.4547461618184572,1,,1
stop_area:SA_1940,,Ecole Roques,43.51131615916175,1.3752540609606918,1,,1
stop_area:SA_1942,,Palanques,43.53500835794902,1.4044836443915119,1,,1
stop_area:SA_1943,,Suisse,43.5365822127212,1.472848370488518,1,,1
stop_area:SA_1944,,Vandel,43.578850090806824,1.3783499054598334,1,,1
stop_area:SA_1947,,Cantegril,43.669513165282616,1.28328486536135,1,,1
stop_area:SA_1948,,Villenouvelle,43.553070632687074,1.3760278687953857,1,,1
stop_area:SA_1949,,Professeur Jammes,43.61717815499789,1.4407643095634413,1,,1
stop_area:SA_195,,Wagner,43.60401035720966,1.4199161507271805,1,,1
stop_area:SA_1951,,Oncopole Courrière,43.55488857714747,1.4313645705726634,1,,1
stop_area:SA_1954,,Lilas,43.510958810823745,1.5552195570822533,1,,2
stop_area:SA_1957,,Le Carral,43.61837419216449,1.4958479976384627,1,,1
stop_area:SA_1958,,Bonnecarrère,43.69950541346936,1.4725536190603188,1,,1
stop_area:SA_1960,,Catala,43.56938583066016,1.5168600375101282,1,,1
stop_area:SA_1964,,Gratentour Gravette,43.715337019593875,1.4202605297216173,1,,1
stop_area:SA_1965,,Erables,43.667761155995116,1.375011049020994,1,,1
stop_area:SA_1968,,Payssière,43.53282977139642,1.5331950861596613,1,,1
stop_area:SA_1969,,Rodoloze,43.49472266336573,1.5207058007253336,1,,2
stop_area:SA_197,,Clinique,43.54337755297402,1.5416272626719212,1,,1
stop_area:SA_1970,,Lapparou,43.65735077844716,1.4319535339575025,1,,1
stop_area:SA_1971,,Centre Commercial Portet - Entrée 5,43.53631692263756,1.4063998059306688,1,,1
stop_area:SA_1975,,Brassens,43.534392286196386,1.5367594778861504,1,,1
stop_area:SA_1976,,Quai de Tounis,43.59729230020412,1.4402788200662253,1,,1
stop_area:SA_1978,,Carrel,43.615655520309396,1.5081187056006573,1,,1
stop_area:SA_1979,,Turtelle,43.70262239865189,1.4592508825644968,1,,2
stop_area:SA_198,,Pastellier,43.594885505243425,1.6066978733597668,1,,1
stop_area:SA_1981,,CREPS  ONERA,43.56985497150115,1.4733590843147015,1,,2
stop_area:SA_1984,,Rimbaud,43.602151332634115,1.50066969573139,1,,1
stop_area:SA_1985,,Aigrefeuille Les Clos,43.56274696803305,1.5852649459565655,1,,2
stop_area:SA_1987,,Croix Bénite,43.65401895722868,1.437659775797248,1,,1
stop_area:SA_1988,,Malepère,43.56716814134505,1.5062337447346357,1,,1
stop_area:SA_1990,,Gourgues,43.680347862076616,1.3865305534675518,1,,1
stop_area:SA_1991,,Licard,43.56035312315274,1.3687464710955632,1,,1
stop_area:SA_1992,,Latécoère,43.65059460901579,1.3334566893459265,1,,1
stop_area:SA_1993,,Ponsan Bellevue,43.56350771304745,1.4553538568605555,1,,1
stop_area:SA_1994,,Domaine,43.57619175938395,1.3479188382013954,1,,2
stop_area:SA_1995,,Séro,43.46247499177776,1.324831901497405,1,,1
stop_area:SA_1998,,Aubrac,43.61358164327929,1.3416931153035276,1,,1
stop_area:SA_1999,,Chemin de Malepère,43.5613093315677,1.502344387416903,1,,1
stop_area:SA_2,,Frênes,43.54111434450056,1.4126826762588798,1,,1
stop_area:SA_2000,,Pelvoux,43.61136927375217,1.3455821758482098,1,,1
stop_area:SA_2001,,Monts du Forez,43.657760918959184,1.4893867308084037,1,,1
stop_area:SA_2003,,Ormes,43.54166993491962,1.4837092733942379,1,,1
stop_area:SA_2004,,Touch,43.57836465930663,1.3429628521861794,1,,1
stop_area:SA_2005,,Lardenne,43.589973423015024,1.3770167552857062,1,,1
stop_area:SA_2006,,Ecole Récébédou,43.53877742062607,1.408384434469175,1,,1
stop_area:SA_2007,,Orthez,43.64822060829721,1.480933963560619,1,,1
stop_area:SA_2008,,Place Bouillière,43.56695612790713,1.393701249352722,1,,1
stop_area:SA_201,,Aude,43.58281358565251,1.4822615079733512,1,,1
stop_area:SA_2013,,Halles,43.51438400563465,1.499566224057617,1,,1
stop_area:SA_2014,,Hyères,43.62792392859623,1.4700279749035026,1,,1
stop_area:SA_2015,,Dewoitine,43.62564369899678,1.3828993323310164,1,,1
stop_area:SA_2016,,Ticaille,43.446984146120755,1.5976261038293489,1,,1
stop_area:SA_2017,,Cap Sicié,43.59829807907824,1.3184674135937373,1,,1
stop_area:SA_2018,,Hubert Curien,43.55779490448024,1.4270121104668674,1,,1
stop_area:SA_2019,,Alouettes,43.55292116157188,1.4714419663500204,1,,1
stop_area:SA_202,,Vestales,43.550988619070004,1.5197224104588205,1,,2
stop_area:SA_203,,Centre Commercial Roques,43.511657839325096,1.3694342075555443,1,,1
stop_area:SA_204,,Bois,43.510322410499946,1.373173281773756,1,,1
stop_area:SA_205,,Cammas,43.56203208459148,1.5244008336908688,1,,1
stop_area:SA_206,,Basso Cambo,43.570006466775496,1.3922732025928362,1,,1
stop_area:SA_208,,Sers,43.68839871509095,1.4058467053375348,1,,1
stop_area:SA_2085,,Père Brottier,43.47151381475499,1.3239574184419394,1,,2
stop_area:SA_209,,Gériatrie,43.61308281661801,1.4019916313436902,1,,1
stop_area:SA_2091,,Saint Lys Rossignols,43.515140476319424,1.1619783391429697,1,,2
stop_area:SA_2092,,Fourcaudis,43.62210618421526,1.3210504232542652,1,,1
stop_area:SA_2093,,Saint Jean,43.62307536563242,1.3290463014444376,1,,1
stop_area:SA_2094,,Collège Léon Blum,43.61554251427579,1.3257473682120402,1,,1
stop_area:SA_2095,,Ampère,43.612450554028996,1.3064330237780424,1,,1
stop_area:SA_2096,,Aquitaine,43.6143377760605,1.3242804008641966,1,,1
stop_area:SA_2097,,Brocéliande,43.62012820329165,1.3154676948274828,1,,1
stop_area:SA_2098,,Perget,43.60879359539422,1.3075319926638098,1,,1
stop_area:SA_2099,,Forez,43.6225751862703,1.3257285285597866,1,,1
stop_area:SA_21,,Edgar Quinet,43.609513470208476,1.4931618744636872,1,,1
stop_area:SA_210,,Zoo Plaisance,43.56212145646723,1.264679333398077,1,,1
stop_area:SA_2100,,Bel Air,43.614651293565004,1.328927237040892,1,,1
stop_area:SA_2101,,Armorique,43.619213310957086,1.3198262937971388,1,,1
stop_area:SA_2103,,Garroussal,43.624022574718765,1.3329867037818075,1,,1
stop_area:SA_2104,,Sevennes,43.605104405876965,1.322301172363547,1,,1
stop_area:SA_2105,,Vendée,43.6183000254192,1.3034649899452253,1,,2
stop_area:SA_2106,,Noirmoutier,43.62061337681726,1.31017446828762,1,,1
stop_area:SA_2107,,Côte D'Or,43.61589238336854,1.340053114652483,1,,1
stop_area:SA_2108,,Baronnies,43.60480236968178,1.318474427548557,1,,1
stop_area:SA_2109,,Pornic,43.615626962661786,1.302970267202032,1,,1
stop_area:SA_2110,,Loudet,43.60975592954502,1.305936747035841,1,,1
stop_area:SA_2111,,Tucol,43.60533968719848,1.3238753693660885,1,,1
stop_area:SA_2112,,Marcadau,43.60578947948884,1.3162017880803798,1,,1
stop_area:SA_2114,,Marclan,43.479641326722074,1.3327420910120056,1,,1
stop_area:SA_2115,,3e R.Mat,43.4856226378244,1.3382547470997255,1,,2
stop_area:SA_2116,,Jean Lestrade,43.45369275701878,1.3327213333570742,1,,1
stop_area:SA_2117,,Jean François Romieu,43.47820176615592,1.3369341215587853,1,,1
stop_area:SA_2118,,Capoul,43.595058069218375,1.3435842672237965,1,,1
stop_area:SA_2119,,Oisans,43.60239742673814,1.3349756711112952,1,,1
stop_area:SA_212,,Peries,43.51261486728884,1.5012619900696162,1,,1
stop_area:SA_2120,,Pyrénées,43.4565868191629,1.3236449354011597,1,,1
stop_area:SA_2121,,Joffrery Sud,43.476196198497775,1.3336961331014732,1,,1
stop_area:SA_2124,,Genevoix,43.466626047329946,1.3112327779841622,1,,1
stop_area:SA_2125,,Vignous,43.45739695471242,1.333247291553299,1,,2
stop_area:SA_2126,,Pic du Ger,43.446601307527324,1.3197954604397395,1,,1
stop_area:SA_2127,,08 Mai 1945,43.4447179875162,1.3180366475012306,1,,1
stop_area:SA_2129,,Clinique Occitanie,43.466494685884726,1.3373584406767463,1,,1
stop_area:SA_213,,Ramonville,43.555901353768704,1.4771491174049718,1,,1
stop_area:SA_2130,,Déchetterie,43.482899721457464,1.3402414308135582,1,,2
stop_area:SA_2131,,Gendarmerie,43.4517502051172,1.3205483661030772,1,,1
stop_area:SA_2132,,Mont Blanc,43.60251567470532,1.3389663441807345,1,,1
stop_area:SA_2133,,Pasteur,43.44663123516957,1.3129382316799652,1,,2
stop_area:SA_2134,,Champagne,43.463905739592775,1.3043839126067263,1,,2
stop_area:SA_2135,,Henri Dunant,43.46853455050862,1.3363034922423964,1,,1
stop_area:SA_2136,,Muret C.A.M.,43.46930313254609,1.3339947392903104,1,,2
stop_area:SA_2137,,Muret Côte des Bènes,43.45678183701239,1.341841392415797,1,,2
stop_area:SA_2139,,Centre Hospitalier,43.444990266724325,1.311631081479049,1,,1
stop_area:SA_214,,14ème Régiment d'Infanterie,43.613815954435914,1.3313111479035826,1,,1
stop_area:SA_2140,,Emile Zola,43.4703580690304,1.3186189752492827,1,,1
stop_area:SA_2141,,Lucie Aubrac,43.597360737609755,1.3490553642547571,1,,1
stop_area:SA_2142,,Muret Sans Souci,43.49118220870698,1.342309283214934,1,,2
stop_area:SA_2143,,Drouet,43.452863686081926,1.3377088575259573,1,,2
stop_area:SA_2144,,Armurier,43.600394173656206,1.3394833400535806,1,,2
stop_area:SA_2145,,Joffrery Nord,43.49094154216774,1.3438936306256721,1,,1
stop_area:SA_2146,,Porte Nord,43.47390396932125,1.3323059791209309,1,,1
stop_area:SA_2148,,Michelet,43.47149006069358,1.3318930026400844,1,,1
stop_area:SA_2149,,Mozart,43.44910896816378,1.3194276777799347,1,,1
stop_area:SA_215,,Saint Louis du Sénégal,43.56557736128171,1.4999050112472676,1,,1
stop_area:SA_2150,,Luchonnais,43.595211239502106,1.3391330042807665,1,,1
stop_area:SA_2151,,Bernard IV,43.4645518503178,1.333566580347596,1,,1
stop_area:SA_2153,,C.F.A.,43.480123803601096,1.3401886022973553,1,,1
stop_area:SA_2154,,Notre Dame,43.466671133819226,1.3179824759261487,1,,1
stop_area:SA_2155,,Vierge,43.48929911675996,1.4074288781826187,1,,1
stop_area:SA_2156,,Pont de l'Europe,43.459966754706144,1.3344323373724403,1,,1
stop_area:SA_2157,,Pompiers,43.48305118659389,1.334083178418913,1,,1
stop_area:SA_2158,,Muret Peyrusse,43.44748979764477,1.3279354050357552,1,,2
stop_area:SA_216,,Paradis,43.50512664887838,1.5674661027613728,1,,1
stop_area:SA_2161,,Bellefontaine,43.44004829086197,1.3134581171447983,1,,2
stop_area:SA_2162,,Aqualudia,43.47129100790076,1.3393528037947713,1,,1
stop_area:SA_2163,,Peyramont,43.4647637774355,1.316301272707192,1,,1
stop_area:SA_2164,,Alain Fournier,43.47210840879519,1.3197120766416381,1,,1
stop_area:SA_2165,,Muret Guyenne,43.466054602011056,1.3007172442171397,1,,2
stop_area:SA_2166,,Georges Brassens,43.59732527942349,1.3455737769060252,1,,1
stop_area:SA_2167,,Clinique Des Pyrénées,43.59788849243182,1.339814066162623,1,,1
stop_area:SA_2169,,Z.A. Nord,43.4875880831149,1.3409571480039162,1,,2
stop_area:SA_217,,Kahn Klein,43.63101199292467,1.4451443201502314,1,,1
stop_area:SA_2174,,Saint Julien,43.509800961583124,1.1789433136463598,1,,1
stop_area:SA_2175,,Eglise St Lys,43.514019919149895,1.1780087646957467,1,,1
stop_area:SA_2176,,Barrat,43.50767235793667,1.1752045299599099,1,,1
stop_area:SA_2177,,Portes du Gers,43.52959888386046,1.2113888874622056,1,,1
stop_area:SA_2178,,8 mai 1945,43.5096768266528,1.1735435475372773,1,,1
stop_area:SA_2179,,Sept Deniers - Salvador Dali,43.626393959288635,1.410898794783795,1,,1
stop_area:SA_218,,Bergeron,43.699018414354924,1.4064568348744877,1,,1
stop_area:SA_2180,,Chemin de Roques,43.62391334362095,1.4094096822151085,1,,2
stop_area:SA_2181,,Nougaro,43.62177864974723,1.4081674781739373,1,,1
stop_area:SA_2182,,Bois de Saget,43.66309145652724,1.498057810699379,1,,1
stop_area:SA_2185,,11 Novembre 1918,43.569672159211294,1.2873711368432235,1,,1
stop_area:SA_2186,,Vitarelles,43.5880484120339,1.3947057554869116,1,,1
stop_area:SA_2187,,Verdale,43.663404368989895,1.490334877487285,1,,1
stop_area:SA_219,,Montplaisir,43.68912545976943,1.3763556343309706,1,,2
stop_area:SA_2194,,Pont de Rupé,43.65653110524598,1.41129333203351,1,,1
stop_area:SA_2195,,Picarel,43.6503123472849,1.4134777121747433,1,,2
stop_area:SA_2196,,Pôle,43.64555197367254,1.4193063594253037,1,,2
stop_area:SA_2197,,Ginestous Chênes,43.658336718335875,1.4104214886363828,1,,1
stop_area:SA_22,,François Verdier,43.600458025504025,1.4523355232648216,1,,1
stop_area:SA_220,,Occitanie,43.525558429076646,1.4088283771603929,1,,1
stop_area:SA_2200,,Edmond Rostand,43.64363480346678,1.4556060857928506,1,,1
stop_area:SA_2201,,Za Triasis,43.65894712885889,1.4548091553869198,1,,1
stop_area:SA_2215,,Barcelone,43.60684908469814,1.430058361035984,1,,1
stop_area:SA_2217,,Les Vivans,43.443128695068495,1.339054352712739,1,,1
stop_area:SA_2218,,Vernole,43.4489984356979,1.336336134731349,1,,1
stop_area:SA_2219,,Roques Charmes,43.49905963859213,1.356357402174652,1,,2
stop_area:SA_2220,,La Croix Blanche 2,43.4242784003721,1.3605460557684146,1,,1
stop_area:SA_2221,,Eaunes Zac Du Mandarin,43.41916088876247,1.372662013301527,1,,2
stop_area:SA_2222,,Plaine Du Pitou,43.42826742865174,1.3544608561532492,1,,1
stop_area:SA_2223,,La Croix Blanche 1,43.42612238535328,1.357796842126865,1,,1
stop_area:SA_2224,,Jean Jaurès,43.52372823070162,1.3991772692757916,1,,1
stop_area:SA_2225,,Moulin D'Augé,43.42072346622265,1.373682492140709,1,,1
stop_area:SA_2226,,Cros,43.48634794300975,1.4028948108345418,1,,1
stop_area:SA_2227,,Comminges,43.4537232707751,1.3929744639300374,1,,1
stop_area:SA_2228,,Mones Del Pujol,43.464713613917716,1.3279277309462887,1,,2
stop_area:SA_2229,,Bescourade,43.459533921050394,1.3731788454979064,1,,1
stop_area:SA_223,,Surcouf,43.51821890688559,1.3281613720432774,1,,1
stop_area:SA_2230,,Gare Pins Justaret,43.480535353762924,1.3991370083504668,1,,1
stop_area:SA_2231,,Cepette,43.47636196335556,1.3980045976587547,1,,1
stop_area:SA_2232,,Condoumines,43.44820225328016,1.3967810711353876,1,,2
stop_area:SA_2233,,P. Mendès France,43.420659607669116,1.316583314378083,1,,2
stop_area:SA_2234,,Baïolvilla,43.41626941086259,1.3129486865225752,1,,2
stop_area:SA_2235,,L'Ayguière,43.45518822805258,1.4023654174592446,1,,1
stop_area:SA_2236,,Village,43.45172903334808,1.4013394078745056,1,,2
stop_area:SA_2237,,Jordanis,43.495849260373674,1.398738247474064,1,,1
stop_area:SA_2238,,Bosc,43.45513667202087,1.3889396998768484,1,,1
stop_area:SA_2239,,Lanasse,43.45798304397717,1.3810999577136356,1,,1
stop_area:SA_224,,La Terrasse,43.58173874845836,1.4871281280872763,1,,2
stop_area:SA_2240,,Ox Eglise,43.44213636243418,1.2916095094338822,1,,2
stop_area:SA_2241,,Campanules,43.452212949352486,1.3958059537036192,1,,1
stop_area:SA_2242,,Muret Estantens Eglise,43.41172364041707,1.3092218634865873,1,,2
stop_area:SA_2243,,Justices,43.449068312288425,1.2973998965194375,1,,1
stop_area:SA_2244,,Petits Champs,43.45912226129366,1.4005744352253926,1,,2
stop_area:SA_2245,,Labarthette,43.449323152705205,1.400829188706425,1,,1
stop_area:SA_2246,,Cailhabat,43.460461309316756,1.3972045107643511,1,,1
stop_area:SA_2247,,Cupidou,43.45898985146896,1.3610473454915695,1,,2
stop_area:SA_2248,,Jean Dabadie,43.46073857333524,1.3442242229030679,1,,1
stop_area:SA_2249,,Saint-Clar Mairie,43.46553022645215,1.216010656497858,1,,1
stop_area:SA_225,,Place de Lespinet,43.5823224767577,1.4643848831081663,1,,1
stop_area:SA_2251,,Cazaleres,43.39753706289177,1.2931254847456308,1,,2
stop_area:SA_2252,,Banqué,43.46265222904104,1.2473135702082174,1,,1
stop_area:SA_2253,,Cabanac,43.46770829266515,1.2405245308717447,1,,2
stop_area:SA_2254,,Ecoles Labastidette,43.460456583552435,1.2490124709312722,1,,1
stop_area:SA_2256,,Route De Toulouse,43.39728130307137,1.2555344558621226,1,,1
stop_area:SA_2257,,Denton,43.46736443405472,1.2461465190548746,1,,2
stop_area:SA_2258,,République,43.399285938262935,1.2684611762799092,1,,2
stop_area:SA_2259,,Route De Toulouse,43.39749335156392,1.2557979069636451,1,,1
stop_area:SA_226,,La Vierge,43.50487317625375,1.6201034643168555,1,,2
stop_area:SA_2260,,La Carrère,43.466293709181194,1.2504384037496037,1,,1
stop_area:SA_2261,,Le Fauga Cimetière,43.39829538166827,1.2975659945069107,1,,2
stop_area:SA_2262,,Grand Place,43.464577348774284,1.217726025702729,1,,1
stop_area:SA_2263,,Mairie Lavernose,43.396422395483995,1.2617574894491594,1,,2
stop_area:SA_2264,,Mairie Labastidette,43.459955257543555,1.2452957542067895,1,,2
stop_area:SA_2265,,Mairie Saint-Hilaire,43.419648783084895,1.2774413385074697,1,,1
stop_area:SA_2266,,Graves,43.39117870474389,1.2533648524955174,1,,1
stop_area:SA_2267,,Chemin Du Bois,43.52515407883281,1.2695325941186246,1,,1
stop_area:SA_2268,,Couloume,43.500182165216344,1.3035496783790423,1,,1
stop_area:SA_2269,,Amadio,43.53400766301343,1.236150841674712,1,,2
stop_area:SA_227,,Collège Picasso,43.5201915529378,1.3203242061847793,1,,1
stop_area:SA_2270,,Saint Lys ZA du Boutet,43.51309376724513,1.197348179250186,1,,1
stop_area:SA_2271,,Chemin Du Raisin,43.52211356233952,1.2792337483765952,1,,1
stop_area:SA_2272,,Chemin Du Bois,43.52506177350271,1.2695602583840466,1,,1
stop_area:SA_2273,,Boulbennes,43.50122746394128,1.307311528524622,1,,1
stop_area:SA_2274,,Chemin des Enlucs,43.5041216908146,1.3030413541478765,1,,1
stop_area:SA_2275,,René Zago,43.511886647986955,1.1878115505534907,1,,1
stop_area:SA_2276,,Amadio,43.5339250792263,1.2360733633426555,1,,1
stop_area:SA_2277,,Mounicard,43.49713919198757,1.300118665635455,1,,1
stop_area:SA_2278,,Rabi,43.49561972705471,1.3043327815136625,1,,1
stop_area:SA_2279,,Route De Roquettes,43.48731730064723,1.3927247083123677,1,,1
stop_area:SA_2280,,Collège St Lys,43.51225331481536,1.184434479283476,1,,1
stop_area:SA_2281,,Chemin Du Raisin,43.522336230133455,1.2790258206087688,1,,1
stop_area:SA_2283,,La Taillade,43.478056528645745,1.382477516119249,1,,1
stop_area:SA_2284,,Mesplé,43.47892177695273,1.3532246229920517,1,,1
stop_area:SA_2285,,La Clé,43.52546131991462,1.4024141639297818,1,,2
stop_area:SA_2286,,Mairie De Villate,43.46899173801954,1.378441762348703,1,,2
stop_area:SA_2287,,Saubens Mairie,43.47995842148871,1.351687413725797,1,,1
stop_area:SA_2288,,Place René Loubet,43.48068858029312,1.385276110170614,1,,2
stop_area:SA_2289,,Haumont,43.46678788892459,1.3763106037098907,1,,2
stop_area:SA_229,,Fontaine,43.608848635782934,1.3546730933163798,1,,1
stop_area:SA_2290,,Carrière,43.4723517780545,1.3801131784876473,1,,1
stop_area:SA_2291,,Stade,43.4789157790252,1.3904906256796636,1,,1
stop_area:SA_2292,,Anciennes Ecoles,43.498408383133196,1.3668427935192604,1,,2
stop_area:SA_2293,,Le Trouil,43.488858784410986,1.3519062328853566,1,,1
stop_area:SA_2294,,Feuillantines,43.4770029181905,1.3525374754154575,1,,1
stop_area:SA_2295,,Cimetière Portet,43.52718496628018,1.3999981987469707,1,,1
stop_area:SA_2296,,Chemin De Roquettes,43.49304523562352,1.353819251079134,1,,2
stop_area:SA_2297,,Garonne,43.49554222901018,1.3587344539395863,1,,2
stop_area:SA_2299,,Saliège,43.46984771289241,1.3399018300034526,1,,1
stop_area:SA_23,,Damoysel,43.54878765819863,1.3992928997774894,1,,2
stop_area:SA_2301,,Fieux,43.582855258844894,1.4186708195138051,1,,2
stop_area:SA_2302,,Jardins de la Marcaissonne,43.569634893628546,1.5084498900292045,1,,1
stop_area:SA_231,,Piste des Géants,43.57546076154069,1.4807353478584246,1,,1
stop_area:SA_2311,,Camélias,43.55901347376835,1.3069230729412642,1,,1
stop_area:SA_2313,,Chemin du Carrelet,43.50994318848089,1.5036372451155133,1,,1
stop_area:SA_2315,,Bigorre,43.60651242902854,1.320428062204233,1,,2
stop_area:SA_2318,,Route de Pechbonnieu,43.69561095135495,1.445069929607929,1,,1
stop_area:SA_2319,,Ramondou,43.694212424372715,1.443075541690676,1,,1
stop_area:SA_232,,Vitarelles,43.50358061033466,1.3209338310197545,1,,1
stop_area:SA_2320,,Bastards,43.552788649088285,1.2486728065937263,1,,2
stop_area:SA_2321,,Faculté de Médecine,43.56137477155351,1.4567828450693787,1,,1
stop_area:SA_2325,,Yves Brunaud,43.61611427112328,1.4651164050087622,1,,1
stop_area:SA_2326,,Secteur I,43.63682905658231,1.327433828463461,1,,2
stop_area:SA_2327,,Terrefort,43.402276422159126,1.258444626944177,1,,1
stop_area:SA_2329,,Bertoulots,43.43072999558938,1.349642389389504,1,,1
stop_area:SA_233,,Pastourelles,43.54343971280732,1.4773077277942768,1,,1
stop_area:SA_2330,,Collège Labarthe,43.46395691053592,1.3975012095449988,1,,2
stop_area:SA_2331,,Lespinasse,43.46022885491504,1.3526459918188636,1,,2
stop_area:SA_2332,,La Petite Maymie,43.43478328468145,1.3445474201288525,1,,2
stop_area:SA_2333,,Florence Arthaud,43.64455930143805,1.457041880803244,1,,1
stop_area:SA_2334,,MEETT,43.66758754819681,1.3597084061806175,1,,1
stop_area:SA_2335,,Hasparren,43.650596511591395,1.483856941036357,1,,1
stop_area:SA_234,,Coquille,43.60645660359213,1.4734019733391697,1,,1
stop_area:SA_2341,,Rivière - Basse,43.567145760902136,1.3007161652346328,1,,1
stop_area:SA_2342,,Prat Dessus,43.56817661019624,1.30370693116841,1,,1
stop_area:SA_2343,,Eglise Plaisance,43.56523886864637,1.2959484506981758,1,,1
stop_area:SA_2347,,Eisenhower Ouest,43.56639405791677,1.3795268769705844,1,,1
stop_area:SA_2348,,Jean Gay,43.57656516525112,1.3181509373455154,1,,1
stop_area:SA_2349,,Grillou,43.56313988913878,1.3614423522845136,1,,1
stop_area:SA_235,,Maillol,43.596621074992484,1.3496568734494054,1,,1
stop_area:SA_2350,,Ferro Lebres,43.58699663974732,1.3750938667677484,1,,1
stop_area:SA_2351,,Zamenhof,43.5854852067549,1.3769123079165735,1,,1
stop_area:SA_2352,,Ancien Tri Postal,43.5843375153734,1.386490441629607,1,,1
stop_area:SA_2354,,Brax-Léguevin Gare SNCF,43.61515940272088,1.2379742162779126,1,,1
stop_area:SA_2356,,Mairie de Brax,43.616280298016534,1.2400967585887779,1,,1
stop_area:SA_2359,,Benozzi,43.60534269387908,1.3551787413316791,1,,1
stop_area:SA_236,,Secteurs D et E,43.63555195759943,1.3310294602549244,1,,1
stop_area:SA_2361,,Complexe Sportif,43.533489325675525,1.2394909669528937,1,,1
stop_area:SA_2362,,Joulin,43.55046707206413,1.4210315717155624,1,,1
stop_area:SA_2364,,St Jean,43.62322011813844,1.49125782716102,1,,1
stop_area:SA_2367,,Gagnac,43.706530299272735,1.383101210768819,1,,1
stop_area:SA_2368,,Tilleuls,43.678635322129004,1.3947465429636872,1,,1
stop_area:SA_2369,,Sévérac,43.60022254787304,1.356543246237667,1,,1
stop_area:SA_237,,Lalande,43.548860276218115,1.51327893207268,1,,2
stop_area:SA_2370,,Saint Granier,43.59860867578342,1.3601725933777333,1,,1
stop_area:SA_2371,,Fabre d'Eglantine,43.596592367175035,1.3591100751678067,1,,1
stop_area:SA_2373,,Mimosas,43.65606053310586,1.4712536073687843,1,,2
stop_area:SA_2374,,Monges,43.64664809997737,1.3193178638276477,1,,1
stop_area:SA_2377,,Gutenberg,43.52060136700799,1.5441359758353985,1,,1
stop_area:SA_2378,,Tuileries,43.57643108722539,1.5082412234849387,1,,1
stop_area:SA_2379,,ADIM,43.574610227832736,1.5052208483877707,1,,1
stop_area:SA_238,,Cimetière Cornebarrieu,43.64054368892151,1.3307582472477524,1,,1
stop_area:SA_2380,,Jardins de la Ligne,43.57177449768208,1.4770900102200495,1,,1
stop_area:SA_2381,,Lacs,43.481674115776975,1.3542918468710818,1,,1
stop_area:SA_2382,,Laborie,43.48285929851372,1.350514813229245,1,,1
stop_area:SA_239,,Laurencin,43.635393643908586,1.4180824204619586,1,,1
stop_area:SA_24,,Grazidou,43.686385464363624,1.4511012612873158,1,,1
stop_area:SA_240,,Négrier,43.66529721114748,1.4956677417414366,1,,2
stop_area:SA_2401,,Les Floralies,43.54053013266175,1.476555206328796,1,,1
stop_area:SA_2403,,Giusta,43.65587312792419,1.3673010014023022,1,,1
stop_area:SA_2404,,Lassalle,43.615229692307956,1.4210521913107104,1,,1
stop_area:SA_2405,,Levant,43.658672979438954,1.365521258176267,1,,1
stop_area:SA_2406,,ZA du Visenc,43.45014936998699,1.6295396165113505,1,,1
stop_area:SA_2407,,ZAC La Masquere,43.516475687141224,1.5351566088802027,1,,2
stop_area:SA_2408,,Marco Polo,43.5448124782301,1.5066438823366681,1,,1
stop_area:SA_2409,,Villeneuve Centre,43.52568094384252,1.341003500595922,1,,1
stop_area:SA_241,,Courties,43.53231746008767,1.386351997361229,1,,1
stop_area:SA_2411,,Provence,43.52573511000583,1.3346169215488868,1,,1
stop_area:SA_2412,,Beldou,43.70776772772718,1.38172977969016,1,,1
stop_area:SA_2414,,Château d'Eau,43.530254584897094,1.3424692096101214,1,,1
stop_area:SA_2416,,Vieille Eglise,43.53312250142932,1.3437164776329262,1,,1
stop_area:SA_2417,,Léon Blum,43.52297195556122,1.3269256575741393,1,,1
stop_area:SA_2418,,Limousin,43.52314904628196,1.3323728384337676,1,,1
stop_area:SA_2419,,Tulipes,43.526101196156844,1.3376041538515693,1,,1
stop_area:SA_242,,Blanqui,43.66358345834365,1.509539274292328,1,,1
stop_area:SA_2420,,Joliot Curie,43.52145098088664,1.330853793396916,1,,1
stop_area:SA_2422,,Déodat Roché,43.574780189763246,1.3810973014074115,1,,1
stop_area:SA_2423,,Elche,43.621995041226775,1.4252574882998035,1,,1
stop_area:SA_2424,,Solidarité,43.59330903254006,1.359380269770578,1,,1
stop_area:SA_2425,,Lapujade,43.62031631118448,1.4531360214663402,1,,2
stop_area:SA_2426,,Bordeblanque,43.599780009560206,1.3114446938351938,1,,1
stop_area:SA_2427,,Valette Haut,43.58127645522813,1.3018235353383119,1,,1
stop_area:SA_2428,,Gibecière,43.58152076360336,1.2967019873274952,1,,1
stop_area:SA_2429,,Chandelier,43.58635922189318,1.3169250853817394,1,,1
stop_area:SA_243,,Turenne,43.599951662687225,1.4151168739601678,1,,1
stop_area:SA_2430,,Peyrette,43.58097254774396,1.2906588912951498,1,,1
stop_area:SA_2431,,Les Baraques,43.576735312932755,1.267608988169156,1,,1
stop_area:SA_2432,,Stade,43.57650592027416,1.2613411872693112,1,,1
stop_area:SA_2433,,La Salvetat Apouticayre,43.571592938482574,1.2454488174022482,1,,1
stop_area:SA_2434,,Grand Bois,43.57620502828381,1.2575326751209086,1,,1
stop_area:SA_2435,,Oliviers,43.57338203957774,1.2517772631183353,1,,1
stop_area:SA_2436,,Taillades,43.61105560111793,1.2368328171259075,1,,1
stop_area:SA_2437,,Oncopole - Lise Enjalbert,43.55469833428578,1.4282784568634073,1,,1
stop_area:SA_2438,,Brax Maudinat,43.60897657985547,1.2348131566558027,1,,1
stop_area:SA_2439,,Lycée Nelson Mandela,43.607278797133425,1.2834806042977007,1,,1
stop_area:SA_244,,Clinique La Croix du Sud,43.58225042788006,1.5121615756226805,1,,1
stop_area:SA_2440,,Jardin Maria Combes,43.65061208826299,1.4481505116438327,1,,1
stop_area:SA_2441,,Avondo,43.647178017294415,1.4520042515253357,1,,1
stop_area:SA_2442,,Ecole Grand Selve,43.648672973808054,1.4495479820593586,1,,1
stop_area:SA_2445,,Balardou,43.61320780961253,1.2856500046412291,1,,1
stop_area:SA_2446,,Giratoire Dunant,43.60986658371949,1.264726208738689,1,,1
stop_area:SA_2447,,Escalette,43.6059033309495,1.273363198073877,1,,1
stop_area:SA_2448,,Jacques Brel,43.52014499956077,1.5624216776481215,1,,1
stop_area:SA_2449,,Fanjeau,43.58308964267829,1.3064065093872361,1,,2
stop_area:SA_2450,,Hôpital Rangueil - Louis Lareng,43.558293888181815,1.4528524839046302,1,,1
stop_area:SA_2453,,Saint-Jory Collège,43.74949376144743,1.3733720133761664,1,,1
stop_area:SA_2455,,Frouzins Tréville,43.52552165783342,1.3118284440731602,1,,1
stop_area:SA_2456,,Rouget de Lisle,43.520662984671375,1.3164176984481901,1,,1
stop_area:SA_2457,,Jonquilles,43.52652018489725,1.3241113810481124,1,,1
stop_area:SA_2458,,Densus,43.529694034369335,1.3278698582914885,1,,1
stop_area:SA_2459,,Cloche,43.53408746817366,1.3323059309977048,1,,1
stop_area:SA_246,,Clos Saint-Martin,43.59730497921995,1.5027906576143448,1,,1
stop_area:SA_2460,,Densus,43.52965592945674,1.3276395228252695,1,,1
stop_area:SA_2462,,Chasse,43.60475857846161,1.3128377459582754,1,,1
stop_area:SA_2463,,Chemin de la Salvetat,43.604638064936736,1.3094667123435226,1,,1
stop_area:SA_2464,,Couserans,43.5366328307836,1.3350533801800186,1,,1
stop_area:SA_2465,,Tertre,43.58575114564564,1.3118883397587402,1,,1
stop_area:SA_2468,,Tour,43.73163279512247,1.415737970963818,1,,1
stop_area:SA_2469,,Mars,43.6793529097726,1.4483649750572136,1,,2
stop_area:SA_247,,Joseph Gasc,43.464458702680616,1.3321528940147862,1,,1
stop_area:SA_2470,,Matéo,43.697249021540955,1.4286579813963318,1,,1
stop_area:SA_2471,,La Grange,43.69969954303782,1.4299527038990218,1,,1
stop_area:SA_2472,,Rond-point Chalets,43.68202126732831,1.4500586728589557,1,,1
stop_area:SA_2473,,Chantelle,43.631655480804625,1.4155778602190354,1,,1
stop_area:SA_2474,,Croizat,43.63746588959598,1.417380087218167,1,,1
stop_area:SA_2475,,Mars,43.67943222119381,1.4482807552875645,1,,1
stop_area:SA_2476,,Saudrune,43.67400914001174,1.4465311683889677,1,,1
stop_area:SA_2477,,Egalité,43.630316976309864,1.4119346287933623,1,,1
stop_area:SA_2478,,ZAC Garonne,43.64103517900954,1.4146663729290303,1,,1
stop_area:SA_248,,Berdeil,43.514425226741594,1.3235741872965854,1,,1
stop_area:SA_2481,,Jacques Brel,43.749727026770216,1.3709969937308262,1,,1
stop_area:SA_2482,,Saint-Jory Gare SNCF,43.73911592726142,1.3727832703513763,1,,1
stop_area:SA_2483,,Trinchet,43.74250453311499,1.3737438751887419,1,,1
stop_area:SA_2484,,Lacs,43.715990733012006,1.3901286026430644,1,,1
stop_area:SA_2485,,Muret Salle Horizon,43.43933614347711,1.3138963749018124,1,,1
stop_area:SA_2488,,Ozenne,43.59586273617006,1.44763208994463,1,,1
stop_area:SA_2489,,Mairie Colomiers,43.60926261081488,1.3345452594834328,1,,1
stop_area:SA_2490,,Robert Maffre,43.56090037891467,1.3868588568546774,1,,1
stop_area:SA_2491,,Fenouillet Centre Commercial - Entrée Nord,43.69249373416989,1.402193948142202,1,,1
stop_area:SA_2494,,Bellefontaine,43.440004344738504,1.3131838527572293,1,,1
stop_area:SA_2497,,Lamasquère Mairie,43.48324210313286,1.2438909329061065,1,,2
stop_area:SA_2498,,F. Mitterrand,43.655203497056085,1.3781031905972763,1,,1
stop_area:SA_2499,,La Rhune,43.657984758419246,1.376235170489351,1,,1
stop_area:SA_25,,Argoulets,43.62453657176888,1.4770136226538648,1,,1
stop_area:SA_250,,Théogone,43.551010951995295,1.4878374473907034,1,,2
stop_area:SA_2500,,Collège Elisa Deroche,43.66425347268465,1.3719640996817832,1,,1
stop_area:SA_2502,,Mont Canigou,43.660604541898294,1.3744569843003407,1,,1
stop_area:SA_2503,,Boisson,43.68098716024313,1.3629288191701086,1,,1
stop_area:SA_2506,,République,43.65136730944366,1.330417494210202,1,,2
stop_area:SA_2508,,Mairie Mondonville,43.672269408315046,1.2845008510748994,1,,1
stop_area:SA_2509,,Ardennes,43.56475317552663,1.2697968824884966,1,,1
stop_area:SA_251,,Pugens,43.587668767404566,1.4801200373904642,1,,1
stop_area:SA_2510,,Dr Charcot,43.5918450207932,1.2937560373013302,1,,2
stop_area:SA_2513,,Impasse Curie,43.62513169425779,1.4416762964983152,1,,1
stop_area:SA_2514,,Toulouse-Lautrec Négreneys,43.624360086060655,1.4435877575662348,1,,1
stop_area:SA_2516,,Musée Paul-Dupuy,43.5971210613242,1.4464233253759118,1,,2
stop_area:SA_252,,Caraïbes,43.60977892277031,1.4954489444136183,1,,1
stop_area:SA_2520,,Ch. de Pompertuzat,43.50555246586346,1.5570493568961645,1,,1
stop_area:SA_2521,,Passerelle A. Conti,43.579655675264426,1.4371971606384328,1,,1
stop_area:SA_2522,,Roger Tissandié,43.460479963649476,1.337436394963911,1,,1
stop_area:SA_2523,,Saint Agne SNCF,43.58041670886005,1.4490120624032705,1,,2
stop_area:SA_2524,,Collège de Paléficat,43.65409202093361,1.4589294466600926,1,,1
stop_area:SA_254,,Mairie Pechabou,43.502595844874975,1.5089098206325877,1,,1
stop_area:SA_255,,Arts,43.5535259071989,1.5043032204697881,1,,1
stop_area:SA_258,,Chante Caille,43.528036495737965,1.5379725886443933,1,,1
stop_area:SA_259,,Cépière Rocade,43.586604005492816,1.4065423946276014,1,,1
stop_area:SA_26,,Jean Jaurès,43.50626962210932,1.3234464724227242,1,,1
stop_area:SA_261,,Rixens,43.626932409298796,1.4533540151566988,1,,1
stop_area:SA_262,,Saint-Laurent,43.518990993713324,1.335840612845631,1,,1
stop_area:SA_263,,Moulin,43.66847388232589,1.5196546477662554,1,,1
stop_area:SA_264,,Dulong,43.63620239782192,1.4304691425183638,1,,1
stop_area:SA_265,,Mallarmé,43.603477689299986,1.5046429860826138,1,,1
stop_area:SA_266,,Pasteur,43.65348137556938,1.5119563239982974,1,,2
stop_area:SA_267,,Barranquet,43.69246187604359,1.5123644715928946,1,,1
stop_area:SA_268,,Centre Commercial Autan,43.53070802974617,1.5352903985337185,1,,1
stop_area:SA_269,,Fac Dentaire,43.56470610399273,1.4623549919638443,1,,1
stop_area:SA_270,,Poste de Portet,43.52057180557511,1.4018913802237447,1,,1
stop_area:SA_271,,Michoun,43.624375441456145,1.4661409063386532,1,,1
stop_area:SA_272,,Clos du Loup,43.66984034748197,1.51569713330231,1,,2
stop_area:SA_273,,Bellegarde,43.60772241158455,1.4454748663600783,1,,1
stop_area:SA_274,,Planck,43.55151178314446,1.5098725789585394,1,,2
stop_area:SA_275,,Saint Cyprien - République,43.59776992746873,1.4310046781135142,1,,1
stop_area:SA_276,,Duméril,43.59061002163579,1.4523599541381769,1,,1
stop_area:SA_278,,Chênes,43.650182107804454,1.3173093733388657,1,,1
stop_area:SA_28,,Chêne Vert,43.69548504907356,1.373690685450543,1,,1
stop_area:SA_280,,Lalande,43.55685684276119,1.5293284326968828,1,,1
stop_area:SA_281,,Bouvier,43.62294753871512,1.4540467683904066,1,,2
stop_area:SA_282,,Mairie Saint-Jean,43.6654615775406,1.5044271535588833,1,,1
stop_area:SA_283,,Bourrouil,43.52313962962961,1.3631379810453468,1,,1
stop_area:SA_284,,Busquet,43.62198120291217,1.5206986490036511,1,,2
stop_area:SA_287,,Pins,43.61632065691548,1.5037312762850967,1,,1
stop_area:SA_289,,En Gilède,43.60507134915497,1.5886710880347357,1,,1
stop_area:SA_29,,Industrie,43.71684963012515,1.3931638198718928,1,,2
stop_area:SA_291,,Maison de Retraite,43.51848936309755,1.1845996272740913,1,,1
stop_area:SA_292,,Buffebiau,43.68561781847222,1.4468836796869218,1,,1
stop_area:SA_293,,Netwiller,43.64230689993661,1.4659543865667377,1,,1
stop_area:SA_294,,Salle Gascogne,43.6102670805416,1.3285958185621862,1,,1
stop_area:SA_295,,Ayral,43.64407462344398,1.4616192717639214,1,,1
stop_area:SA_296,,Noisetiers,43.67005654495935,1.3709253346244366,1,,1
stop_area:SA_297,,Aneto,43.60918776431114,1.3630006512053603,1,,2
stop_area:SA_299,,Myosotis,43.65819181319061,1.4764410443735285,1,,1
stop_area:SA_3,,Somme,43.54488290814795,1.3477571395644252,1,,1
stop_area:SA_30,,Ecole Pin Balma,43.627256366883394,1.531031691459715,1,,1
stop_area:SA_300,,Maison Commune,43.55752923624128,1.430265575732153,1,,1
stop_area:SA_302,,Tilleuls,43.57924934790567,1.339473765448535,1,,1
stop_area:SA_303,,Collège Elisa Deroche,43.660208582078944,1.3694664787507678,1,,1
stop_area:SA_304,,Jaufré Rudel,43.61181562677069,1.392343216553317,1,,1
stop_area:SA_305,,La Palme,43.64638417576824,1.4754376900783537,1,,2
stop_area:SA_306,,Lycée Déodat de Séverac,43.58690995735689,1.4256842576058455,1,,1
stop_area:SA_307,,Désiré,43.52187562478924,1.404155699376065,1,,1
stop_area:SA_308,,Rodin,43.59219433186575,1.427132742664548,1,,1
stop_area:SA_309,,Aqueduc,43.601634431999116,1.458265802887029,1,,1
stop_area:SA_31,,Pins,43.54010669842048,1.5473024763463499,1,,1
stop_area:SA_310,,Béteille,43.65232654953854,1.3621506269694754,1,,2
stop_area:SA_311,,Pont Ducuing,43.563366033394935,1.4613650543752763,1,,1
stop_area:SA_312,,Cordeau,43.626023032653215,1.444790454586584,1,,2
stop_area:SA_313,,Cigognes,43.66404752109886,1.378580387813821,1,,1
stop_area:SA_315,,Brombach,43.59292659258873,1.4039449310642353,1,,1
stop_area:SA_316,,Seysses Maison d'Arrêt,43.48907439189904,1.3233562144916506,1,,2
stop_area:SA_317,,Cimetière Roquettes,43.49660561363955,1.3709235482397257,1,,1
stop_area:SA_318,,Félibres,43.64893441782154,1.463286393725127,1,,2
stop_area:SA_320,,Flotis,43.65409970527264,1.5105298678340133,1,,1
stop_area:SA_321,,Roncevaux,43.65137122171358,1.479632014556135,1,,2
stop_area:SA_322,,Piscine,43.51300131042893,1.1721420728250083,1,,1
stop_area:SA_323,,Ségla,43.633026630104546,1.450700363900985,1,,1
stop_area:SA_324,,Eglise Saint-André,43.626213188903165,1.4675395763779033,1,,1
stop_area:SA_325,,Dufour,43.585571782596524,1.4658913722551405,1,,1
stop_area:SA_327,,Mairie Mons,43.611530589955,1.5731447076901113,1,,1
stop_area:SA_329,,Ecole Castanet,43.519283584931216,1.4966555869656364,1,,1
stop_area:SA_33,,Occitanie,43.529422519484655,1.5310936061548273,1,,2
stop_area:SA_331,,Avenir,43.708414001353155,1.382998414937428,1,,1
stop_area:SA_332,,La Vache,43.63361737926972,1.4349512265637498,1,,1
stop_area:SA_334,,Peyronnette,43.68519440670512,1.4213820465261682,1,,1
stop_area:SA_335,,Port Saint-Etienne,43.599862091479004,1.4566870650825043,1,,1
stop_area:SA_337,,Alcatel,43.5499786909132,1.3929042208959774,1,,1
stop_area:SA_339,,Teinturiers,43.59537775065269,1.4326151609522673,1,,1
stop_area:SA_34,,ZI de Courties,43.53528522950391,1.3876684088082083,1,,1
stop_area:SA_340,,Pitchounelle,43.667336382945834,1.4767989521291098,1,,1
stop_area:SA_342,,Labastidole,43.704248464059404,1.464024225565831,1,,1
stop_area:SA_343,,Eylau,43.619910677810225,1.4410863835201255,1,,1
stop_area:SA_345,,Moulis,43.666045281946964,1.4402085071791444,1,,1
stop_area:SA_346,,Provence,43.60989279492231,1.5005686152658666,1,,1
stop_area:SA_348,,Dancelle,43.653598187627956,1.5002463419390553,1,,1
stop_area:SA_349,,Barbe d'Or,43.68684752575184,1.5059269833961784,1,,1
stop_area:SA_350,,Secteur F,43.63448045813438,1.3299642124124726,1,,2
stop_area:SA_352,,Beaupuy Mairie,43.646387626370675,1.5566220277289686,1,,1
stop_area:SA_355,,Troubadours,43.55423810249282,1.3605253580006962,1,,1
stop_area:SA_357,,Bordenoire,43.56075968060265,1.3475903122108601,1,,1
stop_area:SA_358,,Esplanade,43.45848481287479,1.575188992546031,1,,2
stop_area:SA_359,,Varennes En Clavié,43.47046613420615,1.6851528181558193,1,,2
stop_area:SA_36,,Italiens,43.580253531940876,1.2730811540294977,1,,1
stop_area:SA_362,,Seilh Mairie,43.69515724230655,1.3529741515329436,1,,2
stop_area:SA_363,,Tour Totier,43.6933084775743,1.43539267975611,1,,1
stop_area:SA_364,,Arènes,43.593410154887316,1.418536309922791,1,,1
stop_area:SA_365,,Centre Commercial Castanet,43.521247000560614,1.5129791362957883,1,,1
stop_area:SA_371,,Sirven,43.552609610306554,1.4033596444774774,1,,2
stop_area:SA_372,,Ormeau,43.57965971457959,1.4831878005633967,1,,1
stop_area:SA_374,,Collège Pechbonnieu,43.70536182458442,1.462915503077896,1,,1
stop_area:SA_375,,Dinetard,43.613901301025685,1.476117389406859,1,,1
stop_area:SA_377,,Mairie Beauzelle,43.667158518595954,1.3772483064613612,1,,1
stop_area:SA_38,,Centre Village,43.45731462284032,1.521258797835774,1,,1
stop_area:SA_380,,Jardin Royal,43.594798827636914,1.4495315767402408,1,,1
stop_area:SA_381,,Stade,43.52865823062399,1.4069275478221315,1,,1
stop_area:SA_383,,Castanet-Tolosan,43.508434984377,1.506895153534549,1,,1
stop_area:SA_384,,Esquillette,43.602047869079584,1.325187396555726,1,,1
stop_area:SA_385,,Jaffary,43.630748795246674,1.4619536846056604,1,,1
stop_area:SA_386,,ISAE Campus SUPAERO,43.5664410806463,1.4755918234549772,1,,1
stop_area:SA_387,,René Valmy,43.55896416969616,1.3983638530199431,1,,1
stop_area:SA_388,,Coteaux,43.56717368575721,1.4525629501458917,1,,1
stop_area:SA_389,,Terroir 2,43.702875112404506,1.4012758456529208,1,,1
stop_area:SA_39,,Gymnase,43.585633811711,1.3347987473254002,1,,2
stop_area:SA_391,,Aristote,43.58389563906462,1.4560967953250303,1,,1
stop_area:SA_394,,Roubichou,43.62854767358932,1.4637600933543098,1,,1
stop_area:SA_395,,Piscine,43.65553363269021,1.4914749688512743,1,,1
stop_area:SA_396,,Maupassant,43.64420374221043,1.4649197141479364,1,,1
stop_area:SA_398,,Mairie Gagnac,43.69841952731495,1.3748459914528686,1,,1
stop_area:SA_399,,Tiffaut,43.49468758886668,1.6329956348522048,1,,2
stop_area:SA_4,,Fontaine Lestang,43.58728333032525,1.4188731757631463,1,,1
stop_area:SA_402,,Rangueil,43.57471860220276,1.4621171284487824,1,,1
stop_area:SA_404,,Le Hameau de Lafage,43.57893310728098,1.6000580962029909,1,,1
stop_area:SA_405,,Carrière,43.51084120598659,1.5679331258697953,1,,1
stop_area:SA_406,,Egalité,43.69219359538409,1.4202407400614194,1,,1
stop_area:SA_407,,Pont Vieil,43.69183154850718,1.4271418994496394,1,,2
stop_area:SA_408,,Bruyère,43.48886008435346,1.3972598886886118,1,,2
stop_area:SA_41,,Commerce,43.52428690807862,1.407659526344603,1,,1
stop_area:SA_410,,Conseil Régional,43.58860848809764,1.4400541497390416,1,,1
stop_area:SA_411,,Peupliers,43.523207361673634,1.4944215182643958,1,,1
stop_area:SA_413,,Méditerranée,43.51436026260208,1.3306593491475374,1,,1
stop_area:SA_414,,Puntous,43.69689540405823,1.4768997404459019,1,,1
stop_area:SA_415,,Chemin des Martyrs,43.57056355456757,1.4198760019425247,1,,1
stop_area:SA_416,,Cimetière Fonsorbes,43.53921618513816,1.2348056691949743,1,,1
stop_area:SA_417,,Providence,43.60537184844363,1.4582639219250897,1,,1
stop_area:SA_418,,Lycée Matisse,43.53094537099245,1.3553457215408151,1,,1
stop_area:SA_419,,Raymond Grimaud,43.64021725872223,1.37003453913062,1,,1
stop_area:SA_42,,Colombette,43.60590166275703,1.456488147641379,1,,1
stop_area:SA_421,,Rond-point de l'Espace,43.546510510007735,1.3879705843834311,1,,1
stop_area:SA_422,,Louradou,43.67282538644919,1.510183467819025,1,,2
stop_area:SA_425,,Riquet,43.609037708201164,1.4540178657127762,1,,1
stop_area:SA_427,,Luchet,43.63816329512662,1.4650887977052491,1,,1
stop_area:SA_428,,Place de la Liberté,43.50649345309393,1.6175104629589714,1,,1
stop_area:SA_429,,Nollet,43.59064258092584,1.5113069767047045,1,,1
stop_area:SA_430,,Drémil Stade,43.60107561919725,1.6054183070427892,1,,1
stop_area:SA_431,,Babinet,43.572491283925196,1.4073237248078303,1,,1
stop_area:SA_432,,Château,43.668655700288895,1.5265593580635626,1,,1
stop_area:SA_433,,Ecole Vétérinaire,43.59893946887972,1.383795271105349,1,,1
stop_area:SA_434,,Joseph Strauss,43.64530350455664,1.3654531257254352,1,,1
stop_area:SA_435,,Fillaul,43.62385268033005,1.5269810803230432,1,,1
stop_area:SA_437,,Parc de Campagne,43.56217867805248,1.3129689622986878,1,,1
stop_area:SA_438,,Cosmonautes,43.563555825734426,1.496476829683093,1,,1
stop_area:SA_439,,Croix,43.51662785432482,1.3261738382945272,1,,1
stop_area:SA_440,,Baron,43.64538297314752,1.4392386281962666,1,,2
stop_area:SA_441,,Plaine,43.66451353135212,1.283624286187214,1,,1
stop_area:SA_442,,Buissonnets,43.582642162442006,1.4730772232307237,1,,1
stop_area:SA_443,,F. Mitterrand,43.524603259021,1.3232436346984982,1,,1
stop_area:SA_444,,Météo,43.57759723862735,1.3774028668690725,1,,1
stop_area:SA_445,,Lot Canelles,43.48479500372587,1.525354721828558,1,,2
stop_area:SA_446,,Jean Marais,43.52214631886513,1.3469611955541878,1,,1
stop_area:SA_447,,Place du Relais,43.63713657562058,1.3902679172957384,1,,1
stop_area:SA_448,,Gers - Lartet,43.584354870074336,1.4774161170777502,1,,1
stop_area:SA_449,,Doumergue,43.62116450973682,1.4691940531047474,1,,1
stop_area:SA_45,,Agout,43.666463731486566,1.4799944735989312,1,,1
stop_area:SA_450,,Galaup,43.719086040969316,1.4437783521256726,1,,2
stop_area:SA_451,,Saint-Georges,43.603193790166515,1.4513052456478956,1,,1
stop_area:SA_452,,Champagne,43.616754357365544,1.3306797271248556,1,,1
stop_area:SA_455,,Marquisat,43.569299617004376,1.333217805124177,1,,2
stop_area:SA_456,,Jonquilles,43.56165057579279,1.3048397689512934,1,,1
stop_area:SA_457,,Route de Revel,43.56881251257697,1.5037805136137719,1,,1
stop_area:SA_458,,Balansa,43.59327358541642,1.4739180164055519,1,,1
stop_area:SA_459,,Cugnala - Quai des Arts,43.53575223079359,1.3457970038768274,1,,1
stop_area:SA_46,,Louis Renault,43.629133672818256,1.4877479690946505,1,,1
stop_area:SA_460,,Balma La Coste,43.619135656868835,1.5166917252443672,1,,2
stop_area:SA_461,,Imbertis,43.659157027721584,1.5152777653985918,1,,1
stop_area:SA_462,,Saint-Orens Lycée,43.540791808937485,1.5479074801171147,1,,1
stop_area:SA_463,,Saint-Jean,43.64974364017877,1.3233113048087835,1,,1
stop_area:SA_464,,A. Perdiguier,43.58370194484049,1.2892215020802935,1,,1
stop_area:SA_465,,Moulin,43.705043385925514,1.3824792839192697,1,,1
stop_area:SA_466,,Route d'Espagne,43.55319760597488,1.4224015702891206,1,,1
stop_area:SA_467,,Diane,43.558275937845785,1.3660934946706327,1,,1
stop_area:SA_468,,Rue du 14 juillet,43.5905959000937,1.414791861707494,1,,1
stop_area:SA_469,,Fondargent,43.56158482778005,1.5184361125945958,1,,1
stop_area:SA_470,,Sauzat,43.51887090246487,1.5533223208437565,1,,1
stop_area:SA_471,,ZI Prat Gimont,43.62692375405098,1.48602497826435,1,,1
stop_area:SA_472,,Juncassa,43.66903424365299,1.366375636600367,1,,1
stop_area:SA_473,,Sophie Scholl,43.545792626705165,1.5385829738674672,1,,1
stop_area:SA_474,,Marigny,43.69609404586829,1.47899940609192,1,,1
stop_area:SA_475,,Muret Gare SNCF,43.46514798387481,1.3249142942297383,1,,1
stop_area:SA_478,,Jules Verne,43.55828971480004,1.310161363653774,1,,1
stop_area:SA_480,,Frosines,43.68610153184791,1.4871208409192258,1,,1
stop_area:SA_481,,Camélias,43.665913067248525,1.381311004339137,1,,2
stop_area:SA_482,,Colomiers Airbus,43.61481923435221,1.3532211809219348,1,,2
stop_area:SA_484,,Mairie Lapeyrouse,43.69230045313044,1.5169709162115883,1,,1
stop_area:SA_486,,Bordeneuve,43.578064476768034,1.3221671676141342,1,,1
stop_area:SA_487,,Eglise Montberon,43.71594913102034,1.4801045332266145,1,,1
stop_area:SA_488,,Coustet,43.54981557631191,1.467109545696091,1,,1
stop_area:SA_489,,Tibaous,43.55095897099661,1.3858965576413098,1,,2
stop_area:SA_49,,Monié,43.60731961502042,1.4692233538765305,1,,1
stop_area:SA_490,,Langlade,43.57085169171507,1.4243965160089196,1,,1
stop_area:SA_491,,Bd des Minimes,43.61501581266595,1.4488682683658152,1,,2
stop_area:SA_492,,Riché Lalande,43.647770017164305,1.4330358303185868,1,,1
stop_area:SA_493,,Larrey,43.552961137490826,1.45686307506584,1,,1
stop_area:SA_494,,Cornaudric,43.6656059763709,1.4728440768938478,1,,2
stop_area:SA_495,,Poutier,43.591456219282,1.3778172928504495,1,,1
stop_area:SA_496,,Acacias,43.657084132371324,1.470550319912638,1,,1
stop_area:SA_497,,Gameville,43.549632947889194,1.5356969903176527,1,,1
stop_area:SA_498,,Croix-Daurade,43.63392130719599,1.4633925761202855,1,,1
